note_id,country_name,latitude,longitude,opened_at,closed_at,days_to_resolution,opened_by_username,opening_comment,total_comments,was_reopened,closed_by_username,closing_comment
CREATE FUNCTION
1801596,рдиреЗрдкрд╛рд▓,28.2013780,83.9955794,2019-06-04 00:00:00,2026-01-17 14:56:07,2419,Heart1,"'there is no that place' The place has gone or never existed. This is an auto-generated note from MAPS.ME application: a user reports a POI that is visible on a map (which can be outdated), but cannot be found on the ground. POI name: Shangri-la Development Bank POI types: building amenity-bank OSM data version: 2019-05-17T13:54:02Z  #mapsme",2,0,Unknown,There was never a bank but SB computer service
3610741,рдиреЗрдкрд╛рд▓,28.2018700,83.9952600,2023-03-24 00:00:00,2026-01-17 14:50:19,1030,Sajan Gurung,Compu-TeX IT Solution (MAC service center),3,0,Unknown,
2078728,рдиреЗрдкрд╛рд▓,28.2051800,84.0051900,2020-02-04 00:00:00,2026-01-17 14:30:29,2174,Unknown,Sushanta house,2,0,Unknown,
5129629,рдиреЗрдкрд╛рд▓,28.2964200,85.6681700,2026-01-14 00:00:00,2026-01-16 16:44:48,2,kuhni74,ele 6601m,2,0,kuhni74,
5130915,рдиреЗрдкрд╛рд▓,27.0286430,87.3238206,2026-01-15 00:00:00,2026-01-16 15:35:47,1,Unknown,1,2,0,mavl,This note does not contain a useful information for OpenStreetMap.
5131273,рдиреЗрдкрд╛рд▓,26.8120220,87.2864588,2026-01-16 00:00:00,2026-01-16 09:19:06,0,Unknown,this is my site i want all data of thios site,4,1,Unknown,
3378150,рдиреЗрдкрд╛рд▓,28.0424024,85.7142591,2022-09-29 00:00:00,2026-01-14 21:37:33,1203,Suresh Gautam,"Paach Pokhari, five Hindu holy lakes",2,0,kuhni74,
3298115,рдиреЗрдкрд╛рд▓,27.3240753,85.6472206,2022-08-03 00:00:00,2026-01-14 14:00:45,1260,Unknown,Kavre jilla,2,0,Unknown,
3298114,рдиреЗрдкрд╛рд▓,27.3222786,85.6489031,2022-08-03 00:00:00,2026-01-14 14:00:38,1260,Unknown,Kavre jilla,2,0,Unknown,
5124466,рдиреЗрдкрд╛рд▓,27.1846245,87.2047788,2026-01-10 00:00:00,2026-01-11 13:54:47,1,PizzaTreeIsland,Resurvey and fix tagging on all of these small objects.,2,0,PizzaTreeIsland,
5119758,рдиреЗрдкрд╛рд▓,27.6463197,84.3424487,2026-01-06 00:00:00,2026-01-07 15:59:16,1,Unknown,OUR SITE,2,0,NeisReview,No actionable information was provided for editing OpenStreetMap data. Please feel free to reopen this note with more details. #noeditinfo
5120233,рдиреЗрдкрд╛рд▓,28.9610080,80.1957370,2026-01-06 00:00:00,2026-01-07 15:57:46,1,Unknown,Home,2,0,NeisReview,No actionable information was provided for editing OpenStreetMap data. Please feel free to reopen this note with more details. #noeditinfo
5118204,рдиреЗрдкрд╛рд▓,27.7373120,85.3252660,2026-01-05 00:00:00,2026-01-05 09:07:13,0,Unknown,"Home care nepal,kathmandu branch",2,0,Unknown,
5117804,рдиреЗрдкрд╛рд▓,27.6814270,85.3095970,2026-01-04 00:00:00,2026-01-04 22:47:03,0,Unknown,Marker to the residence..openstreetmap,2,0,Unknown,Mark the point residence(highway)#editnote
5113292,рдиреЗрдкрд╛рд▓,27.6817754,85.3028411,2026-01-01 00:00:00,2026-01-01 16:18:27,0,yup_here,'Duplicate' OSM snapshot date: 2025-12-27T02:09:53Z POI name: Star Hospital POI types: building  #CoMaps android 2025.12.28-2-FDroid,2,0,map per,"Thanks, removed the duplicate"
983855,рдиреЗрдкрд╛рд▓,26.5953254,88.0879688,2017-05-03 00:00:00,2025-12-29 17:10:11,0,Startcn Siwakoti,dhaijanmode (OSM data version: 2016-12-14T16:41:03Z) #mapsme,2,0,Madhab Majhi,
5110075,рдиреЗрдкрд╛рд▓,26.5855241,88.0976164,2025-12-29 00:00:00,2025-12-29 17:04:08,0,Unknown,Proposed Bridge Site,2,0,Madhab Majhi,
2620750,рдиреЗрдкрд╛рд▓,29.3512900,83.3112200,2021-04-13 00:00:00,2025-12-26 17:00:57,0,Karma Dondul Gurung,This community is called Hungkutgaun.,2,0,dmgroom_ct,now added to OSM
2620731,рдиреЗрдкрд╛рд▓,29.3323800,83.3258800,2021-04-13 00:00:00,2025-12-26 16:58:24,0,Karma Dondul Gurung,It is not Poltegaun. It is Poldegaun.,2,0,dmgroom_ct,now corrected
1789499,рдиреЗрдкрд╛рд▓,30.0802800,81.5204400,2019-05-24 00:00:00,2025-12-26 16:54:24,0,Unknown,Pal Sagon Dhungkar Choezom Monastery,2,0,dmgroom_ct,build was named in OSM in 2015
2312075,рдиреЗрдкрд╛рд▓,29.2368600,82.1202100,2020-08-18 00:00:00,2025-12-26 16:50:30,0,Paneyjdev,School,2,0,dmgroom_ct,school has been added
5100809,рдиреЗрдкрд╛рд▓,28.8082058,82.2523642,2025-12-22 00:00:00,2025-12-22 09:00:58,0,Rollingdip,Baskoti,2,0,Rollingdip,
5097771,рдиреЗрдкрд╛рд▓,27.7356696,85.3092724,2025-12-19 00:00:00,2025-12-19 17:38:34,0,new hotel gaule,hotel gaule,5,1,new hotel gaule,
5085695,рдиреЗрдкрд╛рд▓,28.5075917,85.0777729,2025-12-10 00:00:00,2025-12-18 15:21:31,0,Smileroshan,'Tsum Valey Pangpoche Guest House ' POI name: Tsum Valey Pangpoche Guest House POI types: tourism-guest_house internet_access-wlan OSM data version: 2025-08-18T14:30:50Z  #mapsme,2,0,NeisBot,"Hi Smileroshan, Thank you for your contribution!   I've reviewed OSM and noticed that the following element already exists:  'Tsum Valey Pangpoche Guest House' (tourism=guest_house) https://osm.org/node/13366311201  Due to this, I'm closing this note now.   If you have further details to share or if you'd like to reopen the note in the future, feel free to do so.  #AlreadyMapped #Closing"
5088189,рдиреЗрдкрд╛рд▓,28.2288478,83.9881657,2025-12-12 00:00:00,2025-12-18 06:26:53,0,muzirian,'house tagged wrong' OSM snapshot date: 2025-11-23T09:12:00Z POI has no name POI types: tourism-attraction  #CoMaps android 2025.11.25-4-FDroid,2,0,map per,"Thanks, deleted the attraction"
5088187,рдиреЗрдкрд╛рд▓,28.2211860,84.0010162,2025-12-12 00:00:00,2025-12-18 06:25:06,0,muzirian,'wrong tag on house' OSM snapshot date: 2025-11-23T09:12:00Z POI has no name POI types: historic-castle  #CoMaps android 2025.11.25-4-FDroid,2,0,map per,Thanks deleted the castle
5092127,рдиреЗрдкрд╛рд▓,28.5108815,81.3249709,2025-12-15 00:00:00,2025-12-15 10:46:02,0,laufkaefer,Unable to answer 'Is this still here?' тАУ Mohan┬аHotel (Restaurant) тАУ https://osm.org/way/558307241 via StreetComplete 62.0:  Residental building,2,0,NeisBot,"This note has the identical location and text  as note https://osm.org/note/5092125  Therefore, it will be closed.  #DuplicateNote"
5084551,рдиреЗрдкрд╛рд▓,27.6754298,85.3976961,2025-12-09 00:00:00,2025-12-10 14:57:29,0,yup_here,"This place does not exist: 'This is duplication of another plane near by.' A CoMaps user reported that the POI was visible on the map (see snapshot date below), but was not found on the ground. OSM snapshot date: 2025-11-23T09:12:00Z POI name: Bhat Bhateni Departmental Store POI types: shop-department_store  #CoMaps android 2025.11.25-4-FDroid",2,0,map per,"Thanks, deleted the duplicate"
3172171,рдиреЗрдкрд╛рд▓,28.6598462,84.5839595,2022-05-09 00:00:00,2025-12-07 13:07:59,0,Marky i88,'Bad place to stay.' POI name: Dharmashala (Larke Phedi) POI types: place-locality OSM data version: 2018-09-11T19:10:03Z  #mapsme,2,0,laufkaefer,
5079664,рдиреЗрдкрд╛рд▓,28.9541152,80.2003930,2025-12-05 00:00:00,2025-12-05 10:13:21,0,Shekhar Prasad Bhatt,Here are too many houses but not shown in map,2,0,Shekhar Prasad Bhatt,
616764,рдиреЗрдкрд╛рд▓,27.5744059,86.3497925,2016-07-05 00:00:00,2025-12-05 02:14:08,0,Dror L,Bhandar,3,0,Aleema Washif ЁЯЗ▓ЁЯЗ╛,Chhyangma
5078412,рдиреЗрдкрд╛рд▓,28.2319308,83.9443003,2025-12-04 00:00:00,2025-12-04 10:35:06,0,laufkaefer,Aussicht  via StreetComplete 62.0,2,0,laufkaefer,
5077894,рдиреЗрдкрд╛рд▓,26.7165918,87.0967920,2025-12-03 00:00:00,2025-12-03 20:29:53,0,Mateusz Konieczny,https://www.openstreetmap.org/way/377830255/history has HR = EWS  What is the meaning of this unusual key? Is this tag needed? Or maybe can it be expressed in a more typical way that would be easier to understand? Or maybe this key can and should be documented as useful tagging schema?,2,0,Mateusz Konieczny,
3779429,рдиреЗрдкрд╛рд▓,28.4594009,85.0471830,2023-07-14 00:00:00,2025-11-30 18:00:12,0,Matyjace,"Forwarding anonymous report from #Mapy.cz user, please verify: 'Gumba Lungdang',",2,0,michellid1967,
5074111,рдиреЗрдкрд╛рд▓,27.5238585,83.1538705,2025-11-30 00:00:00,2025-11-30 17:43:21,0,Pakadi olt,Join,4,1,Pakadi olt,
1263414,рдиреЗрдкрд╛рд▓,28.2246211,83.9496787,2018-01-10 00:00:00,2025-11-30 13:16:12,0,Victor RomanOff,sagar (OSM data version: 2017-01-19T15:17:02Z) #mapsme,2,0,laufkaefer,
1759139,рдиреЗрдкрд╛рд▓,28.2235405,83.9527277,2019-04-27 00:00:00,2025-11-30 10:17:26,0,Raju Nepali,"'Nice place' The place has gone or never existed. This is an auto-generated note from MAPS.ME application: a user reports a POI that is visible on a map (which can be outdated), but cannot be found on the ground. POI has no name POI types: tourism-information OSM data version: 2019-03-28T14:13:02Z  #mapsme",2,0,laufkaefer,
1785589,рдиреЗрдкрд╛рд▓,28.2235437,83.9527299,2019-05-20 00:00:00,2025-11-30 10:17:08,0,Raju Nepali,"'Very nice' The place has gone or never existed. This is an auto-generated note from MAPS.ME application: a user reports a POI that is visible on a map (which can be outdated), but cannot be found on the ground. POI has no name POI types: shop-travel_agency OSM data version: 2019-04-19T10:36:02Z  #mapsme",2,0,laufkaefer,
1759140,рдиреЗрдкрд╛рд▓,28.2235441,83.9527268,2019-04-27 00:00:00,2025-11-30 10:17:07,0,Raju Nepali,"'Recommended company' The place has gone or never existed. This is an auto-generated note from MAPS.ME application: a user reports a POI that is visible on a map (which can be outdated), but cannot be found on the ground. POI has no name POI types: tourism-information OSM data version: 2019-03-28T14:13:02Z  #mapsme",3,0,laufkaefer,
3164739,рдиреЗрдкрд╛рд▓,28.6491933,84.4718968,2022-05-04 00:00:00,2025-11-26 12:03:27,0,David White professor,"'There is no hamlet or settlement here. Probably it was destroyed ' The place has gone or never existed. A user of Organic Maps application has reported that the POI was visible on the map (see snapshot date below), but was not found on the ground. OSM snapshot date: 2022-03-14T07:52:33Z POI name: Bimt─Бkothi POI types: place-hamlet  #organicmaps",2,0,laufkaefer,
5068676,рдиреЗрдкрд╛рд▓,26.4232830,87.9794260,2025-11-26 00:00:00,2025-11-26 11:26:49,0,Unknown,Pragati Chowk - рдкреНрд░рдЧрддрд┐ рдЪреЛрдХ,2,0,arunpaudel,
2099244,рдиреЗрдкрд╛рд▓,28.5871822,84.6411844,2020-02-23 00:00:00,2025-11-21 10:42:51,0,Hotel Norling,"The place has gone or never existed. This is an auto-generated note from MAPS.ME application: a user reports a POI that is visible on a map (which can be outdated), but cannot be found on the ground. POI name: Norling Guest House POI types: building tourism-guest_house amenity-restaurant internet_access-wlan OSM data version: 2019-08-30T18:41:13Z  #mapsme",2,0,laufkaefer,
3700935,рдиреЗрдкрд╛рд▓,28.4794300,84.8670900,2023-05-22 00:00:00,2025-11-17 11:38:41,0,Tajtrdlik,"Forwarding anonymous report from #Mapy.cz user, please verify: 'This small village is called Deng'.",2,0,laufkaefer,
3307632,рдиреЗрдкрд╛рд▓,27.6733480,85.3240829,2022-08-10 00:00:00,2025-11-15 04:46:27,0,SushmaGhimire,'Kumari Bank Limited' OSM snapshot date: 2022-07-18T07:38:05Z POI has no name POI types: amenity-atm  #organicmaps,2,0,Aakritiji,
5050897,рдиреЗрдкрд╛рд▓,27.7180664,85.3089470,2025-11-13 00:00:00,2025-11-13 11:30:19,0,laufkaefer,Unable to answer 'Is this still here?' тАУ The┬аYellow┬аHouse (Guest┬аHouse) тАУ https://osm.org/node/4363076287 via StreetComplete 61.3:  empty patch of lsnd,2,0,laufkaefer,
5050898,рдиреЗрдкрд╛рд▓,27.7179302,85.3092640,2025-11-13 00:00:00,2025-11-13 11:30:18,0,laufkaefer,Unable to answer 'Is this still here?' тАУ Divine┬аGuest┬аHouse (Guest┬аHouse) тАУ https://osm.org/node/6021113418 via StreetComplete 61.3:  Residental building,2,0,laufkaefer,
5050895,рдиреЗрдкрд╛рд▓,27.7180955,85.3086193,2025-11-13 00:00:00,2025-11-13 11:30:16,0,laufkaefer,Unable to answer 'Is this still here?' тАУ Fair┬аView┬аGuest┬аHouse (Guest┬аHouse) тАУ https://osm.org/node/4363076490 via StreetComplete 61.3:  Residental building,2,0,laufkaefer,
5042420,рдиреЗрдкрд╛рд▓,28.7092210,83.6470699,2025-11-07 00:00:00,2025-11-12 06:36:16,0,Unknown,1,6,1,NeisReview,No actionable information was provided for editing OpenStreetMap data. Please feel free to reopen this note with more details. #noeditinfo
2071345,рдиреЗрдкрд╛рд▓,29.5122295,82.1092415,2020-01-28 00:00:00,2025-11-12 04:00:59,0,Unknown,Somewhere here is a parking spot,2,0,alokgis1995,
5048335,рдиреЗрдкрд╛рд▓,28.4899811,81.4754386,2025-11-11 00:00:00,2025-11-11 17:57:11,0,Unknown,Hello,2,0,NeisReview,No actionable information was provided for editing OpenStreetMap data. Please feel free to reopen this note with more details. #noeditinfo
5042292,рдиреЗрдкрд╛рд▓,27.1823913,86.8265980,2025-11-07 00:00:00,2025-11-09 09:26:33,0,Unknown,i need the coordinates,2,0,NeisReview,The content of this note is #nonsense.
5034962,рдиреЗрдкрд╛рд▓,27.6831409,85.3868398,2025-11-02 00:00:00,2025-11-07 17:46:12,0,Bajracharya Rajendra,'Caliber Shoes Thimi Bahakhabazar' POI name: Caliber Shoes Thimi Bahakhabazar POI types: shop-shoes internet_access-wlan OSM data version: 2025-08-18T14:30:50Z  #mapsme,2,0,NeisBot,"Hi Bajracharya Rajendra, Thank you for your contribution!   I've reviewed OSM and noticed that the following element already exists:  'Caliber Shoes Thimi Bahakhabazar' (shop=shoes) https://osm.org/node/13276014101  Due to this, I'm closing this note now.   If you have further details to share or if you'd like to reopen the note in the future, feel free to do so.  #AlreadyMapped #Closing"
5034980,рдиреЗрдкрд╛рд▓,27.6831409,85.3868398,2025-11-02 00:00:00,2025-11-07 17:46:12,0,Bajracharya Rajendra,'Caliber Shoes Thimi Bahakhabazar ' POI name: Caliber Shoes Thimi Bahakhabazar POI types: shop-shoes internet_access-wlan OSM data version: 2025-08-18T14:30:50Z  #mapsme,2,0,NeisBot,"Hi Bajracharya Rajendra, Thank you for your contribution!   I've reviewed OSM and noticed that the following element already exists:  'Caliber Shoes Thimi Bahakhabazar' (shop=shoes) https://osm.org/node/13276014101  Due to this, I'm closing this note now.   If you have further details to share or if you'd like to reopen the note in the future, feel free to do so.  #AlreadyMapped #Closing"
5034961,рдиреЗрдкрд╛рд▓,27.6831409,85.3868398,2025-11-02 00:00:00,2025-11-07 17:46:12,0,Bajracharya Rajendra,'Caliber Shoes Thimi Bahakhabazar' POI name: Caliber Shoes Thimi Bahakhabazar POI types: shop-shoes internet_access-wlan OSM data version: 2025-01-17T15:34:13Z  #mapsme,2,0,NeisBot,"Hi Bajracharya Rajendra, Thank you for your contribution!   I've reviewed OSM and noticed that the following element already exists:  'Caliber Shoes Thimi Bahakhabazar' (shop=shoes) https://osm.org/node/13276014101  Due to this, I'm closing this note now.   If you have further details to share or if you'd like to reopen the note in the future, feel free to do so.  #AlreadyMapped #Closing"
2022834,рдиреЗрдкрд╛рд▓,27.6837147,85.3058009,2019-12-11 00:00:00,2025-11-04 15:57:43,0,SameerM,"'This place has moved to Lamatar.' The place has gone or never existed. This is an auto-generated note from MAPS.ME application: a user reports a POI that is visible on a map (which can be outdated), but cannot be found on the ground. POI name: Shuvatara English Boarding School POI types: amenity-school OSM data version: 2019-10-19T16:52:54Z  #mapsme",3,1,escanor1,
5037920,рдиреЗрдкрд╛рд▓,28.3775416,83.8055885,2025-11-04 00:00:00,2025-11-04 15:03:28,0,revx,RJ Boutique Hotel,5,1,baralxml,
5033680,рдиреЗрдкрд╛рд▓,27.6735010,85.3252067,2025-11-02 00:00:00,2025-11-02 19:53:22,0,yup_here,"'The area is located in the museum' The place has gone or never existed. A CoMaps user reported that the POI was visible on the map (see snapshot date below), but was not found on the ground. OSM snapshot date: 2025-09-06T09:48:08Z POI has no name POI types: internet_access-wlan tourism-hotel  #CoMaps android",2,0,map per,"Thanks, deleted the hotel"
5034983,рдиреЗрдкрд╛рд▓,27.6831409,85.3868398,2025-11-02 00:00:00,2025-11-02 17:46:01,0,Bajracharya Rajendra,'Caliber Shoes Thimi Bahakhabazar' POI name: Caliber Shoes Thimi Bahakhabazar POI types: shop-shoes internet_access-wlan OSM data version: 2025-08-18T14:30:50Z  #mapsme,2,0,NeisBot,"This note has the identical location and text  as note https://osm.org/note/5034962  Therefore, it will be closed.  #DuplicateNote"
5026822,рдиреЗрдкрд╛рд▓,28.4076050,83.7970707,2025-10-28 00:00:00,2025-11-02 16:26:11,0,Udhabkc,'Kimrong Viewpoint Guest House' POI name: Kimrong Viewpoint Guest House POI types: tourism-guest_house internet_access-wlan OSM data version: 2025-08-18T14:30:50Z  #mapsme,2,0,NeisBot,"Hi Udhabkc, Thank you for your contribution!   I've reviewed OSM and noticed that the following element already exists:  'Kimrong Viewpoint Guest House' (tourism=guest_house) https://osm.org/node/13265313001  Due to this, I'm closing this note now.   If you have further details to share or if you'd like to reopen the note in the future, feel free to do so.  #AlreadyMapped #Closing"
3678594,рдиреЗрдкрд╛рд▓,27.8113048,86.7177240,2023-05-07 00:00:00,2025-10-30 08:31:13,0,Pemba Gyalbu,'Sherpa Panorama Hotels' POI name: Sherpa Panorama Hotels POI types: tourism-alpine_hut internet_access-wlan OSM data version: 2023-03-14T07:42:53Z  #mapsme,2,0,ShuheiTakenaka,
359272,рдиреЗрдкрд╛рд▓,27.1162979,85.6251949,2015-05-06 00:00:00,2025-10-29 11:03:46,0,Harry Wood,I'm fixing landuse while quite zoomed out. Needs refining here now,2,0,Harry Wood,"I think landuse data is looking pretty good here now. It can always be refined further of course, but I think at the time (10 years ago!) there was only some really crude big straight lines of imported forest data here.  Well done to whoever has been fixing up all the landuse and adding lots of other great details here!"
2829403,рдиреЗрдкрд╛рд▓,26.5679937,87.4550986,2021-08-31 00:00:00,2025-10-28 13:41:32,0,Purbalikanchadai,Bir Narsingh Karki Kamat ghar Farm House,2,0,NeisBot,Same as note https://osm.org/note/2829402 only ~3 m apart. Closing as duplicate.  #DuplicateNote #Nearby
1840084,рдиреЗрдкрд╛рд▓,27.9182456,85.1692128,2019-07-10 00:00:00,2025-10-28 13:39:25,0,Unknown,sahar pani dhara,2,0,NeisBot,Same as note https://osm.org/note/1839547 only ~3 m apart. Closing as duplicate.  #DuplicateNote #Nearby
1677677,рдиреЗрдкрд╛рд▓,27.5953023,85.3228248,2019-02-11 00:00:00,2025-10-28 13:39:24,0,rajendra8888,'kaleshor tel mill' POI has no name POI types: man_made-chimney OSM data version: 2018-12-13T07:12:02Z  #mapsme,2,0,NeisBot,Same as note https://osm.org/note/1677676 only ~3 m apart. Closing as duplicate.  #DuplicateNote #Nearby
1592983,рдиреЗрдкрд╛рд▓,28.4054000,81.1586600,2018-11-18 00:00:00,2025-10-28 13:37:21,0,Unknown,Hospital,2,0,NeisBot,Same as note https://osm.org/note/1592981 only ~3 m apart. Closing as duplicate.  #DuplicateNote #Nearby
1404801,рдиреЗрдкрд╛рд▓,28.1900118,81.4685684,2018-05-25 00:00:00,2025-10-28 13:37:20,0,├Р├Я Chhetri,"'.' The place has gone or never existed. This is an auto-generated note from MAPS.ME application: a user reports a POI that is visible on a map (which can be outdated), but cannot be found on the ground. POI has no name POI types: amenity-bench OSM data version: 2018-01-26T12:04:02Z  #mapsme",2,0,NeisBot,Same as note https://osm.org/note/1404800 only ~3 m apart. Closing as duplicate.  #DuplicateNote #Nearby
1059120,рдиреЗрдкрд╛рд▓,27.6770221,85.3169522,2017-07-10 00:00:00,2025-10-28 13:37:19,0,Sudikshya Acharya,'Ground floor' POI name: Evo Store POI types: shop-electronics OSM data version: 2017-06-09T16:24:09Z  #mapsme,2,0,NeisBot,Same as note https://osm.org/note/1059119 only ~3 m apart. Closing as duplicate.  #DuplicateNote #Nearby
1161527,рдиреЗрдкрд╛рд▓,26.7282217,85.9266351,2017-10-04 00:00:00,2025-10-28 13:28:57,0,Dipendra thakur,'Sauteniya inar' POI has no name POI types: man_made-water_well OSM data version: 2017-09-17T07:13:02Z  #mapsme,2,0,NeisBot,Same as note https://osm.org/note/1161526 only ~2 m apart. Closing as duplicate.  #DuplicateNote #Nearby
2049416,рдиреЗрдкрд╛рд▓,27.7015630,85.2999443,2020-01-07 00:00:00,2025-10-28 13:24:48,0,Jems drifter,'cctv' POI has no name POI types: man_made-surveillance OSM data version: 2019-11-24T01:08:45Z  #mapsme,2,0,NeisBot,Same as note https://osm.org/note/2049415 only ~1 m apart. Closing as duplicate.  #DuplicateNote #Nearby
842848,рдиреЗрдкрд╛рд▓,27.6066764,84.2843393,2017-01-06 00:00:00,2025-10-28 13:22:44,0,Adarsha pokhrel,Adarsha house (OSM data version: 2016-12-14T16:41:03Z) #mapsme,2,0,NeisBot,Same as note https://osm.org/note/842847 only ~1 m apart. Closing as duplicate.  #DuplicateNote #Nearby
894837,рдиреЗрдкрд╛рд▓,26.8992755,85.6813258,2017-02-17 00:00:00,2025-10-28 13:07:57,0,рдирдорди рдЪреМрдХ рд╣рд░рд┐рдкреБрд░реНрд╡рд╛ - 7,рдирдорди рдЪреМрдХ рд╣рд░рд┐рдкреБрд░реНрд╡рд╛ рдореЗ рд╕реНрд╡рд╛рдЧрддрдореН рд╣реИ рдЖрдкрдХреА (OSM data version: 2017-01-19T15:17:02Z) #mapsme,2,0,NeisBot,Same as note https://osm.org/note/894832 only ~1 m apart. Closing as duplicate.  #DuplicateNote #Nearby
1841296,рдиреЗрдкрд╛рд▓,27.9173592,85.1633441,2019-07-11 00:00:00,2025-10-28 13:05:55,0,Unknown,barud khana pokhari,2,0,NeisBot,Same as note https://osm.org/note/1840010 only ~1 m apart. Closing as duplicate.  #DuplicateNote #Nearby
1677678,рдиреЗрдкрд╛рд▓,27.5955472,85.3229580,2019-02-11 00:00:00,2025-10-28 13:01:45,0,rajendra8888,'kaleshor tel mill' POI has no name POI types: man_made-chimney OSM data version: 2018-12-13T07:12:02Z  #mapsme,2,0,NeisBot,Same as note https://osm.org/note/1677675 only ~1 m apart. Closing as duplicate.  #DuplicateNote #Nearby
1759492,рдиреЗрдкрд╛рд▓,26.7293373,85.9284838,2019-04-27 00:00:00,2025-10-21 15:58:35,0,Ana Steele,"'Le restaurant a ├йt├й d├йplac├й' The place has gone or never existed. This is an auto-generated note from MAPS.ME application: a user reports a POI that is visible on a map (which can be outdated), but cannot be found on the ground. POI name: Rooftop Restaurant POI types: amenity-restaurant OSM data version: 2019-03-14T00:11:02Z  #mapsme",3,1,Sujata Shakya,
3880867,рдиреЗрдкрд╛рд▓,28.1713134,85.3501251,2023-09-10 00:00:00,2025-10-10 19:35:39,0,osmuser63783,Landslide here - impossible for vehicles to cross until cleared,2,0,ANG LAKPA,Its already cleared
3883636,рдиреЗрдкрд╛рд▓,28.1618094,85.3775700,2023-09-11 00:00:00,2025-10-10 19:31:14,0,osmuser63783,Unsure if this segment of hiking path still exists since the road further up was built - survey required (or wait for more up to date imagery),2,0,ANG LAKPA,This is also till the where i newly created a path that join upwards. After that there is no way
3884939,рдиреЗрдкрд╛рд▓,28.1629300,85.3808300,2023-09-12 00:00:00,2025-10-10 19:15:46,0,Unknown,A large boulder approximately here blocks the road (https://www.openstreetmap.org/node/1547068183). When (if) it is eventually removed this will need updating,2,0,ANG LAKPA,This has already been cleared and the raod okay till Noesagang
2608876,рдиреЗрдкрд╛рд▓,27.8134958,84.8272848,2021-04-04 00:00:00,2025-10-06 12:18:53,0,nrajtheeye,Malekhu,4,1,Taksine,What are you doing? This place has been tagged. What are you going to do?
1642529,рдиреЗрдкрд╛рд▓,27.5856868,87.9495969,2019-01-07 00:00:00,2025-10-04 10:02:43,0,Saroz_Limbu,'Selele to Tseram Path' POI has no name POI types: highway-path OSM data version: 2018-12-13T07:12:02Z  #mapsme,4,1,xsivlychilly,marked
1642530,рдиреЗрдкрд╛рд▓,27.5877432,88.0006989,2019-01-07 00:00:00,2025-10-04 10:01:08,0,Saroz_Limbu,'Tseram to Ramzer' POI name: Tseram to Ramche POI types: highway-path OSM data version: 2018-12-13T07:12:02Z  #mapsme,2,0,xsivlychilly,marked
1224955,рдиреЗрдкрд╛рд▓,26.6457676,88.1602587,2017-12-02 00:00:00,2025-10-04 09:21:24,0,Robert7k,"'wrong location' The place has gone or never existed. This is an auto-generated note from MAPS.ME application: a user reports a POI that is visible on a map (which can be outdated), but cannot be found on the ground. POI has no name POI types: tourism-information OSM data version: 2017-10-06T18:13:02Z  #mapsme",2,0,xsivlychilly,
1224956,рдиреЗрдкрд╛рд▓,26.6455308,88.1608695,2017-12-02 00:00:00,2025-10-04 09:20:58,0,Robert7k,"'No road here, just a small path' POI has no name POI types: tourism-attraction OSM data version: 2017-10-06T18:13:02Z  #mapsme",2,0,xsivlychilly,
948479,рдиреЗрдкрд╛рд▓,28.8197987,83.8666402,2017-04-01 00:00:00,2025-09-04 08:38:17,0,Alexandre Suey,Tharla  Choeling  Nunnery (OSM data version: 2016-09-19T14:38:03Z) #mapsme,3,0,Fran├зois Bronchart,
2077899,рдиреЗрдкрд╛рд▓,28.8372187,83.7840638,2020-02-03 00:00:00,2025-09-04 08:18:33,0,Unknown,hotel sparrrow,5,1,Fran├зois Bronchart,"Verified, there's nothing there. Probably destroyed by the flood. Nothing remains"
3036329,рдиреЗрдкрд╛рд▓,26.4653963,87.7070117,2022-02-03 00:00:00,2025-09-01 15:19:45,0,user_15008537,Name is missing and the Name is тАЬ KHAJURGACHHI CHOKтАЭ,4,1,Mateusz Konieczny - bot account,"closing note from deleted account, now contentless"
1928439,рдиреЗрдкрд╛рд▓,26.9262567,85.2861689,2019-09-16 00:00:00,2025-09-01 13:45:52,0,Amir gupta,"Shree Jay kishan higher secondary school,Dhrahari",4,1,Mateusz Konieczny - bot account,"closing note from deleted account, now contentless"
797276,рдиреЗрдкрд╛рд▓,28.2112003,83.9570119,2016-11-27 00:00:00,2025-09-01 12:15:27,0,user_4889452,mast (OSM data version: 2016-06-20T05:57:02Z) #mapsme,5,0,Mateusz Konieczny,"closing note from deleted user, now blanked"
2150183,рдиреЗрдкрд╛рд▓,28.8368089,83.7835346,2020-04-06 00:00:00,2025-08-30 10:33:09,0,ivanawm_,"'The place is duplicated' The place has gone or never existed. This is an auto-generated note from MAPS.ME application: a user reports a POI that is visible on a map (which can be outdated), but cannot be found on the ground. POI name: Yak Donalds POI types: tourism-hotel OSM data version: 2020-02-09T04:19:23Z  #mapsme",4,0,Fran├зois Bronchart,
3123984,рдиреЗрдкрд╛рд▓,27.6830153,85.3863164,2022-04-08 00:00:00,2025-08-29 10:33:23,0,Unknown,onosm.org submitted note from a business: name: Sayto Kalo phone: +977 9843499343 website:  twitter:  facebook: https://m.facebook.com/Cafe-Sayto-Kalo-104575077721163/ email: Surajmaskeyshrestha@gmail.com hours: Everyday (7-9) category: Cafes address: bahakha bazaar,2,0,bithst,
1422730,рдиреЗрдкрд╛рд▓,28.6763283,83.6178448,2018-06-11 00:00:00,2025-08-28 09:05:01,0,cschab,'this hamlet (3 houses) called Sirkung is not mapped...' POI has no name POI types: tourism-attraction OSM data version: 2018-03-16T17:06:02Z  #mapsme,3,0,Fran├зois Bronchart,
1398808,рдиреЗрдкрд╛рд▓,28.7771940,83.9726787,2018-05-19 00:00:00,2025-08-27 11:10:23,0,thejonasty,"'there was a Water Spot, does not exist anymore' The place has gone or never existed. This is an auto-generated note from MAPS.ME application: a user reports a POI that is visible on a map (which can be outdated), but cannot be found on the ground. POI name: ACAP Safe Drinking Water Station POI types: amenity-drinking_water OSM data version: 2018-04-17T05:20:02Z  #mapsme",3,0,Fran├зois Bronchart,
3958708,рдиреЗрдкрд╛рд▓,28.6800740,83.9063760,2023-10-26 00:00:00,2025-08-25 07:57:48,0,Nabili,Water source here,4,0,Fran├зois Bronchart,
894242,рдиреЗрдкрд╛рд▓,28.6494993,84.0531342,2017-02-16 00:00:00,2025-08-23 05:09:51,0,Carlos Alberto Mart├нnez Gadea,"The place has gone or never existed. This is an auto-generated note from MAPS.ME application: a user reports a POI that is visible on a map (which can be outdated), but cannot be found on the ground. (OSM data version: 2017-01-19T15:17:02Z) #mapsme",3,0,Fran├зois Bronchart,
1628023,рдиреЗрдкрд╛рд▓,28.6411674,84.1376767,2018-12-25 00:00:00,2025-08-22 13:00:30,0,Unknown,Yak Ru,3,0,Fran├зois Bronchart,
1595643,рдиреЗрдкрд╛рд▓,27.8252657,85.4483711,2018-11-21 00:00:00,2025-08-09 17:14:21,0,Globalpat,"'destroyed by earthquake' The place has gone or never existed. This is an auto-generated note from MAPS.ME application: a user reports a POI that is visible on a map (which can be outdated), but cannot be found on the ground. POI name: Hotel Mountain Galaxy POI types: tourism-hotel OSM data version: 2017-10-20T12:20:02Z  #mapsme",2,0,Mateusz Konieczny,
1595641,рдиреЗрдкрд╛рд▓,27.8253369,85.4486446,2018-11-21 00:00:00,2025-08-09 17:14:09,0,Globalpat,"'destroyed by earthquake ' The place has gone or never existed. This is an auto-generated note from MAPS.ME application: a user reports a POI that is visible on a map (which can be outdated), but cannot be found on the ground. POI name: Hotel Shangbola POI types: tourism-hotel OSM data version: 2017-10-20T12:20:02Z  #mapsme",2,0,Mateusz Konieczny,
1595644,рдиреЗрдкрд╛рд▓,27.8255788,85.4484488,2018-11-21 00:00:00,2025-08-09 17:13:54,0,Globalpat,"'destroyed by earthquake ' The place has gone or never existed. This is an auto-generated note from MAPS.ME application: a user reports a POI that is visible on a map (which can be outdated), but cannot be found on the ground. POI has no name POI types: building OSM data version: 2017-10-20T12:20:02Z  #mapsme",2,0,Mateusz Konieczny,
1595647,рдиреЗрдкрд╛рд▓,27.8258350,85.4485159,2018-11-21 00:00:00,2025-08-09 17:13:23,0,Globalpat,"'destroyed by earthquake ' The place has gone or never existed. This is an auto-generated note from MAPS.ME application: a user reports a POI that is visible on a map (which can be outdated), but cannot be found on the ground. POI name: Chipa Bhanjhyang Cheese And Panir Production Center POI types: man_made-works OSM data version: 2017-10-20T12:20:02Z  #mapsme",2,0,Mateusz Konieczny,
1595645,рдиреЗрдкрд╛рд▓,27.8257401,85.4484797,2018-11-21 00:00:00,2025-08-09 17:13:21,0,Globalpat,"'destroyed by earthquake ' The place has gone or never existed. This is an auto-generated note from MAPS.ME application: a user reports a POI that is visible on a map (which can be outdated), but cannot be found on the ground. POI has no name POI types: building OSM data version: 2017-10-20T12:20:02Z  #mapsme",2,0,Mateusz Konieczny,
3424683,рдиреЗрдкрд╛рд▓,27.7767346,85.3620919,2022-11-02 00:00:00,2025-08-04 02:52:58,0,ivanbranco,bus station as highway node?,4,1,Puru123,
846347,рдиреЗрдкрд╛рд▓,27.6675407,85.3216733,2017-01-09 00:00:00,2025-07-18 15:48:20,0,UmEs Manandhar,fifth floor (OSM data version: 2016-10-10T15:13:03Z) #mapsme,2,0,hyaaa,
654014,рдиреЗрдкрд╛рд▓,27.6670907,85.3232789,2016-08-02 00:00:00,2025-07-18 15:47:56,0,Gobag,Lagankhel,3,1,hyaaa,
3053662,рдиреЗрдкрд╛рд▓,27.7249900,85.3608000,2022-02-16 00:00:00,2025-07-16 04:49:52,0,Dolma Sherpa,446/4,5,1,Fran├зois Bronchart,added
3053664,рдиреЗрдкрд╛рд▓,27.7248957,85.3607494,2022-02-16 00:00:00,2025-07-16 04:49:45,0,Dolma Sherpa,446/6,2,0,Fran├зois Bronchart,added
3609892,рдиреЗрдкрд╛рд▓,27.7050925,85.3149426,2023-03-23 00:00:00,2025-07-15 11:06:39,0,Unknown,Khula Manch,2,0,Ibliss,
1205524,рдиреЗрдкрд╛рд▓,26.7345875,85.9227935,2017-11-14 00:00:00,2025-07-11 19:02:29,0,Dipendra thakur,'Barhabigha' POI has no name POI types: leisure-playground OSM data version: 2017-10-06T18:13:02Z  #mapsme,2,0,theahir,
2455361,рдиреЗрдкрд╛рд▓,29.6032749,80.7456279,2020-12-07 00:00:00,2025-07-10 23:00:44,0,jumbanho,"There seem to be roads here, but the tags don't seem right.  I don't think these roads are motorway/trunk nor are they one way.",2,0,dannmer,fixed 4 years ago
1950380,рдиреЗрдкрд╛рд▓,28.2699950,85.3784351,2019-10-06 00:00:00,2025-07-10 02:46:28,0,mabaguena,"'wrong position - have been there 2 days ago' The place has gone or never existed. This is an auto-generated note from MAPS.ME application: a user reports a POI that is visible on a map (which can be outdated), but cannot be found on the ground. POI name: Nepal Immigration Offices POI types: office-government OSM data version: 2019-08-30T18:41:13Z  #mapsme",2,0,Taksine,
2005377,рдиреЗрдкрд╛рд▓,28.1121755,85.2966090,2019-11-22 00:00:00,2025-07-07 07:37:17,0,Joachim Somers,'bus ticket' POI has no name POI types: building OSM data version: 2018-08-04T14:22:01Z  #mapsme,3,1,Aleema Washif ЁЯЗ▓ЁЯЗ╛,
4829701,рдиреЗрдкрд╛рд▓,27.7029160,85.3958920,2025-06-28 00:00:00,2025-07-04 05:45:50,0,Unknown,Hanuman left something for you this is the location of hanuman at real time: Link to the hanuman's home: https%3A%2F%2Fx.com%2FNerd3rd%2Fstatus%2F1938986700979740841,5,1,anil3333,I am still here.
4829170,рдиреЗрдкрд╛рд▓,27.6918100,85.3760140,2025-06-28 00:00:00,2025-06-29 12:53:01,0,Unknown,Hey! send this message to sita: This is morse encoded message  .... - - .--. ... ---... -..-. -..-. .-- .-- .-- .-.-.- ..-. .- -.-. . -... --- --- -.- .-.-.- -.-. --- -- -..-. .--. .-. --- ..-. .. .-.. . .-.-.- .--. .... .--. ..--.. .. -.. -...- -.... .---- ..... --... --... ..... ----. ..... ..--- ---.. ...-- ....- ..... ...--,2,0,mavl,This note does not contain a useful information for OpenStreetMap.
4829219,рдиреЗрдкрд╛рд▓,27.7013500,85.4017100,2025-06-28 00:00:00,2025-06-29 12:52:29,0,Unknown,Hey Hanuman can be find here: decode it and find hanuman .... - - .--. ... ---... -..-. -..-. .-- .-- .-- .-.-.- ..-. .- -.-. . -... --- --- -.- .-.-.- -.-. --- -- -..-. ... .... .- .-. . -..-. .---- .- -.... -.-. ...- --.- ..--- .--- -.... . -..-.,2,0,mavl,This note does not contain a useful information for OpenStreetMap.
4829207,рдиреЗрдкрд╛рд▓,27.6927600,85.3836600,2025-06-28 00:00:00,2025-06-29 12:51:57,0,Unknown,Hello hackers! This is my real location link can you decode it? .... - - .--. ... ---... -..-. -..-. .-- .-- .-- .-.-.- ..-. .- -.-. . -... --- --- -.- .-.-.- -.-. --- -- -..-. ... .... .- .-. . -..-. .--. -..-. .---- ... -.-. .- . ..--- - ...- -.-. -.. -..-.,2,0,mavl,This note does not contain a useful information for OpenStreetMap.
2968396,рдиреЗрдкрд╛рд▓,28.2793996,85.3798485,2021-12-12 00:00:00,2025-06-27 11:09:50,0,Unknown,RASUWA,2,0,DavidLong,
4826475,рдиреЗрдкрд╛рд▓,27.7116820,85.3173890,2025-06-26 00:00:00,2025-06-26 10:33:01,0,alicesec7,Alice,8,1,alicesec7,aaa
1455145,рдиреЗрдкрд╛рд▓,28.3134108,83.8304901,2018-07-15 00:00:00,2025-06-19 04:34:01,0,Unknown,Pokhara,2,0,BaboucheVerte,no
1762173,рдиреЗрдкрд╛рд▓,27.6867300,86.7295537,2019-04-30 00:00:00,2025-06-18 16:59:03,0,├Ьna Chueh,'ф╕╣хвЮх╕МцЛЙщЗМцйЯха┤' POI name: Tenzing-Hillary Airport POI types: aeroway-aerodrome OSM data version: 2019-01-13T09:03:02Z  #mapsme,3,1,Evgeny Golub,
3235663,рдиреЗрдкрд╛рд▓,29.8094628,80.8963680,2022-06-22 00:00:00,2025-06-16 23:10:38,0,Unknown,Khandeshwori,2,0,╨г╤Б╤В╨╕╨╝╤Л╤З,
1339108,рдиреЗрдкрд╛рд▓,28.3932215,83.7714291,2018-03-26 00:00:00,2025-06-12 07:10:07,0,elomita,there's another path here in blue white,2,0,BaboucheVerte,"yes, added"
4010419,рдиреЗрдкрд╛рд▓,28.4252460,83.6882700,2023-12-01 00:00:00,2025-06-10 06:49:47,0,murphy22,Hiking Path to the road here,2,0,BaboucheVerte,yes
1104990,рдиреЗрдкрд╛рд▓,28.0903000,84.3285200,2017-08-15 00:00:00,2025-06-09 23:42:34,0,Mateusz Konieczny,what kind of open field is here?,2,0,dannmer,fixed
1044113,рдиреЗрдкрд╛рд▓,28.7772138,83.9732265,2017-06-27 00:00:00,2025-06-09 09:41:03,0,Unknown,╨в╨╛╤А╨╛╨╜╨│ ╤Д╨╡╨┤╨╕,3,0,BaboucheVerte,yes
742303,рдиреЗрдкрд╛рд▓,28.6806475,83.9451726,2016-10-09 00:00:00,2025-06-09 05:42:18,0,Gaurav Thapa,upper shiree khadkha (OSM data version: 2016-09-19T14:38:03Z) #mapsme,2,0,BaboucheVerte,yes
3977940,рдиреЗрдкрд╛рд▓,28.6665664,84.0023028,2023-11-08 00:00:00,2025-06-09 05:42:17,0,svetluna_tracingplanet,trail becomes wider  #OsmAnd,2,0,BaboucheVerte,"yes, added"
3958709,рдиреЗрдкрд╛рд▓,28.6803900,83.9532980,2023-10-26 00:00:00,2025-06-09 05:42:16,0,Nabili,ItтАЩs not a shelter but a place with few hotels,2,0,BaboucheVerte,yes
353693,рдиреЗрдкрд╛рд▓,28.6636670,84.0232658,2015-04-26 00:00:00,2025-06-09 05:42:15,0,SK53,I think these are largely walls/retaining walls which have been misinterpreted,2,0,BaboucheVerte,absolutely
1944030,рдиреЗрдкрд╛рд▓,28.6290073,84.0350910,2019-09-30 00:00:00,2025-06-09 05:42:14,0,badcodelab,'4305 m' POI has no name POI types: tourism-viewpoint OSM data version: 2019-08-30T18:41:13Z  #mapsme,2,0,BaboucheVerte,ok
1417703,рдиреЗрдкрд╛рд▓,28.6769521,83.9719933,2018-06-06 00:00:00,2025-06-09 05:42:13,0,Dragosbalaniuc,'Abandoned Village' POI has no name POI types: amenity-shelter OSM data version: 2017-06-09T16:24:09Z  #mapsme,2,0,BaboucheVerte,"yes, indeed"
1944029,рдиреЗрдкрд╛рд▓,28.6787391,83.9885573,2019-09-30 00:00:00,2025-06-09 05:42:13,0,badcodelab,'4135 m' POI has no name POI types: tourism-viewpoint OSM data version: 2019-08-30T18:41:13Z  #mapsme,2,0,BaboucheVerte,ok
1759939,рдиреЗрдкрд╛рд▓,28.6798993,83.9065166,2019-04-28 00:00:00,2025-06-09 05:42:12,0,Yosef farada,"'╫Ь╫Щ╫Ь╫Ф ╫й╫Ю╫Щ╫а╫Щ ╫Х╫к╫й╫Щ╫в╫Щ, ╫С╫Ю╫з╫Х╫Э ╫Щ╫й ╫й╫а╫Щ ╫Ю╫Ь╫Х╫а╫Х╫к - ╫Р╫Ч╫У ╫Ш╫Х╫С ╫в╫Э ╫С╫Я ╫Р╫У╫Э ╫Ю╫Ю╫й ╫Ь╫Р ╫а╫Ч╫Ю╫У ╫Х╫Р╫Ч╫У ╫Ь╫Р ╫Ю╫й╫Ф╫Х ╫в╫Э ╫Р╫а╫й╫Щ╫Э ╫а╫Ч╫Ю╫У╫Щ╫Э.' POI name: Tilicho Base Camp POI types: place-isolated_dwelling OSM data version: 2019-03-28T14:13:02Z  #mapsme",2,0,BaboucheVerte,already mapped
3977937,рдиреЗрдкрд╛рд▓,28.6668997,84.0040893,2023-11-08 00:00:00,2025-06-09 05:42:11,0,svetluna_tracingplanet,Very narrow cree trail. Challenging  #OsmAnd,2,0,BaboucheVerte,"yes, added"
1422715,рдиреЗрдкрд╛рд▓,28.7284758,83.8165750,2018-06-11 00:00:00,2025-06-09 05:29:54,0,cschab,'This might be what locals call 'Tilicho Base Camp' (not confirmed)' POI has no name POI types: tourism-camp_site OSM data version: 2018-03-16T17:06:02Z  #mapsme,2,0,BaboucheVerte,nope
1417706,рдиреЗрдкрд╛рд▓,28.6595512,84.0851403,2018-06-06 00:00:00,2025-06-06 11:28:11,0,Dragosbalaniuc,'Half abandoned village' POI has no name POI types: amenity-shelter OSM data version: 2017-06-09T16:24:09Z  #mapsme,2,0,BaboucheVerte,"no, still inhabitants"
1834972,рдиреЗрдкрд╛рд▓,28.6378025,84.1372617,2019-07-05 00:00:00,2025-06-06 11:28:11,0,AyeshK,"'It looks like a landslide has taken this shop away. A small wooded foundation remains. ' The place has gone or never existed. This is an auto-generated note from MAPS.ME application: a user reports a POI that is visible on a map (which can be outdated), but cannot be found on the ground. POI has no name POI types: amenity-cafe OSM data version: 2019-05-17T13:54:02Z  #mapsme",2,0,BaboucheVerte,deleted
1566975,рдиреЗрдкрд╛рд▓,28.6190066,84.1535250,2018-10-21 00:00:00,2025-06-06 11:28:10,0,Unfiltered Explorations,'Route to Ghyaru' POI has no name POI types: amenity-bench OSM data version: 2018-08-04T14:22:01Z  #mapsme,2,0,BaboucheVerte,?
894244,рдиреЗрдкрд╛рд▓,28.6371575,84.0391465,2017-02-16 00:00:00,2025-06-06 11:28:09,0,Carlos Alberto Mart├нnez Gadea,4000m high (OSM data version: 2017-01-19T15:17:02Z) #mapsme,2,0,BaboucheVerte,and ?
777024,рдиреЗрдкрд╛рд▓,28.6660676,84.0524821,2016-11-09 00:00:00,2025-06-06 11:28:08,0,Unknown,newly opened tea Hose (08.10.2016),2,0,BaboucheVerte,it's mapped
1417705,рдиреЗрдкрд╛рд▓,28.6595544,84.0851437,2018-06-06 00:00:00,2025-06-06 11:28:07,0,Dragosbalaniuc,'Half abandoned village' POI name: Chulu POI types: place-village OSM data version: 2017-06-09T16:24:09Z  #mapsme,2,0,BaboucheVerte,still habitnats
3977934,рдиреЗрдкрд╛рд▓,28.6565223,84.0608886,2023-11-08 00:00:00,2025-06-06 11:28:06,0,svetluna_tracingplanet,these shelters may be good for camping  #OsmAnd,2,0,BaboucheVerte,yes ...
3977921,рдиреЗрдкрд╛рд▓,28.5346250,84.3268718,2023-11-08 00:00:00,2025-06-06 11:28:06,0,svetluna_tracingplanet,"possible trail to the next western village, north side of the river  #OsmAnd",2,0,BaboucheVerte,no more due to construction
2224901,рдиреЗрдкрд╛рд▓,28.7371929,83.9732265,2020-06-10 00:00:00,2025-06-06 11:28:05,0,stefan005,do not go there. Drunk and super unfriendly owner.,4,1,BaboucheVerte,OSM is not the place to survey this kind of info
1986872,рдиреЗрдкрд╛рд▓,28.6661113,84.0231176,2019-11-06 00:00:00,2025-06-06 11:28:03,0,BarHand,"'someone did 'edit place' instead of 'edit book mark'' The place has gone or never existed. This is an auto-generated note from MAPS.ME application: a user reports a POI that is visible on a map (which can be outdated), but cannot be found on the ground. POI name: Manang POI types: place-village OSM data version: 2019-08-30T18:41:13Z  #mapsme",2,0,BaboucheVerte,close note
3977929,рдиреЗрдкрд╛рд▓,28.5799907,84.1831632,2023-11-08 00:00:00,2025-06-06 08:10:01,0,svetluna_tracingplanet,"bridge is broken, please remove from the map  #OsmAnd",2,0,BaboucheVerte,removed
3977931,рдиреЗрдкрд╛рд▓,28.6054178,84.1715740,2023-11-08 00:00:00,2025-06-06 08:10:00,0,svetluna_tracingplanet,road  #OsmAnd,2,0,BaboucheVerte,"yes, updated"
738995,рдиреЗрдкрд╛рд▓,28.5880833,84.1865768,2016-10-06 00:00:00,2025-06-06 08:09:59,0,Unknown,The plane is ca─║led Bhratang. Mind the h behinderte the b.,2,0,BaboucheVerte,"It's not here, and already mapped"
3977930,рдиреЗрдкрд╛рд▓,28.5980175,84.1847073,2023-11-08 00:00:00,2025-06-06 08:09:57,0,svetluna_tracingplanet,there is a trail going down from the road towards the river. please check where it is going  #OsmAnd,2,0,BaboucheVerte,it's AC. Just mapped it.
3977932,рдиреЗрдкрд╛рд▓,28.6055158,84.1712137,2023-11-08 00:00:00,2025-06-06 08:09:56,0,svetluna_tracingplanet,walking trail  #OsmAnd,2,0,BaboucheVerte,"yes, updated"
3977920,рдиреЗрдкрд╛рд▓,28.5343973,84.3339588,2023-11-08 00:00:00,2025-06-05 11:35:51,0,svetluna_tracingplanet,Bridge washed out 4 years ago. please delete from the map  #OsmAnd,2,0,BaboucheVerte,new bridge now
3977922,рдиреЗрдкрд╛рд▓,28.5356324,84.3337651,2023-11-08 00:00:00,2025-06-05 11:35:50,0,svetluna_tracingplanet,seems like the manaslu cirquet trail continues to the west to the next metal bridge because the south bridge is washed away  #OsmAnd,2,0,BaboucheVerte,"hydro power construction around, note not up to date"
3977924,рдиреЗрдкрд╛рд▓,28.5289820,84.3185386,2023-11-08 00:00:00,2025-06-05 11:35:49,0,svetluna_tracingplanet,trail doesn't exist. please delete  #OsmAnd,2,0,BaboucheVerte,deleted
946308,рдиреЗрдкрд╛рд▓,28.5507500,84.2435300,2017-03-30 00:00:00,2025-06-05 11:35:48,0,Arkan_Arkan,╨з╨░╨╝╨╡,2,0,BaboucheVerte,"Da, eto prav ..."
3977914,рдиреЗрдкрд╛рд▓,28.4796503,84.3710195,2023-11-08 00:00:00,2025-06-05 09:45:26,0,svetluna_tracingplanet,Trail ends due to landslide. New bridge is being built. Nov 2023  #OsmAnd,2,0,BaboucheVerte,path updated
3967350,рдиреЗрдкрд╛рд▓,28.4596746,84.3726288,2023-11-01 00:00:00,2025-06-05 04:44:10,0,svetluna_tracingplanet,trails merge  #OsmAnd,3,0,BaboucheVerte,done
3057656,рдиреЗрдкрд╛рд▓,28.4149500,84.4065600,2022-02-19 00:00:00,2025-06-05 04:44:09,0,Unknown,Hotel new revel roof top restaurant jagat,2,0,BaboucheVerte,duplicates note
3967349,рдиреЗрдкрд╛рд▓,28.4518646,84.3758038,2023-11-01 00:00:00,2025-06-05 04:44:08,0,svetluna_tracingplanet,Old and new trails merge  #OsmAnd,2,0,BaboucheVerte,done
1360199,рдиреЗрдкрд╛рд▓,28.4101811,84.4075084,2018-04-14 00:00:00,2025-06-04 07:13:31,0,Unknown,location of river and road do not match with satellite photos. may be due to high cliffs and therefore bad GPS signal/mountain effect.,2,0,BaboucheVerte,yes
1738439,рдиреЗрдкрд╛рд▓,28.4130708,84.4065949,2019-04-08 00:00:00,2025-06-04 07:10:52,0,allleshka,'It s very good new guest house on trekking Annapurna circuit.' POI has no name POI types: tourism-alpine_hut internet_access-wlan OSM data version: 2019-03-14T00:11:02Z  #mapsme,2,0,BaboucheVerte,
3164744,рдиреЗрдкрд╛рд▓,28.2772092,84.3599494,2022-05-04 00:00:00,2025-06-03 04:11:16,0,David White professor,"'I just went through this town yesterday (May 3). There is no checkpoint. It's now in Tal' The place has gone or never existed. A user of Organic Maps application has reported that the POI was visible on the map (see snapshot date below), but was not found on the ground. OSM snapshot date: 2022-03-14T07:52:33Z POI has no name POI types: tourism-attraction  #organicmaps",2,0,BaboucheVerte,"yes, deleted"
3164743,рдиреЗрдкрд╛рд▓,28.2775423,84.3598207,2022-05-04 00:00:00,2025-06-03 04:11:16,0,David White professor,"'I just went through this town yesterday (May 3). There is no checkpoint. It's now in Tal' The place has gone or never existed. A user of Organic Maps application has reported that the POI was visible on the map (see snapshot date below), but was not found on the ground. OSM snapshot date: 2022-03-14T07:52:33Z POI has no name POI types: amenity-post_office  #organicmaps",2,0,BaboucheVerte,"yes, deleted"
3164745,рдиреЗрдкрд╛рд▓,28.2763329,84.3606441,2022-05-04 00:00:00,2025-06-03 04:11:15,0,David White professor,"'I just went through this town yesterday (May 3). There is no checkpoint. It's now in Tal' The place has gone or never existed. A user of Organic Maps application has reported that the POI was visible on the map (see snapshot date below), but was not found on the ground. OSM snapshot date: 2022-03-14T07:52:33Z POI has no name POI types: tourism-information-office  #organicmaps",2,0,BaboucheVerte,"yes, I deleted it"
1478629,рдиреЗрдкрд╛рд▓,28.2369840,84.3722500,2018-08-05 00:00:00,2025-06-03 04:11:14,0,Gr├йgory M├йnadier,"'pas au bon endroit' The place has gone or never existed. This is an auto-generated note from MAPS.ME application: a user reports a POI that is visible on a map (which can be outdated), but cannot be found on the ground. POI name: ACAP checkpoint POI types: tourism-information OSM data version: 2017-08-17T15:51:02Z  #mapsme",2,0,BaboucheVerte,"yes, deleted"
1914432,рдиреЗрдкрд╛рд▓,27.7026844,85.3511411,2019-09-06 00:00:00,2025-06-02 23:47:10,0,wizardofoz,'Road No. 2' POI has no name POI types: psurface-unpaved_good highway-residential OSM data version: 2019-07-27T07:02:33Z  #mapsme,2,0,BaboucheVerte,Added
1549232,рдиреЗрдкрд╛рд▓,27.7111801,85.2043544,2018-10-03 00:00:00,2025-06-01 14:44:52,0,RolandsNordlicht,"'verfallen' The place has gone or never existed. This is an auto-generated note from MAPS.ME application: a user reports a POI that is visible on a map (which can be outdated), but cannot be found on the ground. POI has no name POI types: amenity-restaurant OSM data version: 2018-08-04T14:22:01Z  #mapsme",2,0,BaboucheVerte,indeed
607191,рдиреЗрдкрд╛рд▓,27.6992529,85.2096788,2016-06-28 00:00:00,2025-06-01 14:33:08,0,N Ryan Sharma,Entrance/Exit for Kathmandu valley (OSM data version: 2016-06-01T10:03:02Z) #mapsme,2,0,BaboucheVerte,?
1208992,рдиреЗрдкрд╛рд▓,27.9874288,84.3480766,2017-11-17 00:00:00,2025-06-01 06:56:00,0,Sailesh Prj,New Bikash Highway Hotel and Restrurent (OSM data version: 2017-01-19T15:17:02Z) #mapsme,2,0,BaboucheVerte,alreafy mapped
1855025,рдиреЗрдкрд╛рд▓,28.2011440,84.0107070,2019-07-24 00:00:00,2025-06-01 04:51:45,0,eherrada,"'individual buildings have been added here so this is not needed' The place has gone or never existed. This is an auto-generated note from MAPS.ME application: a user reports a POI that is visible on a map (which can be outdated), but cannot be found on the ground. POI has no name POI types: landuse-garages OSM data version: 2019-06-21T10:47:15Z  #mapsme",4,1,BaboucheVerte,?
1029038,рдиреЗрдкрд╛рд▓,28.2009877,83.9724299,2017-06-13 00:00:00,2025-06-01 04:11:21,0,Shreeram Motorcycle Workshop,Shreeram Motorcycle Workshop,4,1,BaboucheVerte,no
1578909,рдиреЗрдкрд╛рд▓,28.2003982,83.9715843,2018-11-02 00:00:00,2025-06-01 03:41:15,0,St├йphane Gailler,"'I didnтАЩt find it' The place has gone or never existed. This is an auto-generated note from MAPS.ME application: a user reports a POI that is visible on a map (which can be outdated), but cannot be found on the ground. POI name: Gautam General Shop POI types: shop-convenience OSM data version: 2018-09-11T19:10:03Z  #mapsme",2,0,BaboucheVerte,true. nothing here
373250,рдиреЗрдкрд╛рд▓,27.6950375,84.4221935,2015-06-01 00:00:00,2025-05-29 23:39:09,0,SomeoneElse,Does http://www.openstreetmap.org/node/3392408789 actually exist?  It seems to be between the road and the buildings.,3,1,user_22952112,
841476,рдиреЗрдкрд╛рд▓,28.3518489,84.4083941,2017-01-04 00:00:00,2025-05-29 10:07:30,0,Jadewillow,possible  to drink :) (OSM data version: 2016-12-14T16:41:03Z) #mapsme,2,0,BaboucheVerte,waterfall already mapped
1478628,рдиреЗрдкрд╛рд▓,28.3738166,84.4046779,2018-08-05 00:00:00,2025-05-29 10:06:57,0,Gr├йgory M├йnadier,"'elle n'est pas au bon endroit' The place has gone or never existed. This is an auto-generated note from MAPS.ME application: a user reports a POI that is visible on a map (which can be outdated), but cannot be found on the ground. POI name: The Peacefull Hotel POI types: tourism-hotel OSM data version: 2017-08-17T15:51:02Z  #mapsme",2,0,BaboucheVerte,?
1306158,рдиреЗрдкрд╛рд▓,28.3873984,84.4019938,2018-02-21 00:00:00,2025-05-29 10:06:28,0,Unknown,╨Э╨░╤З╨░╨╗╨╛ ╤В╤А╤Н╨║╨░,3,0,BaboucheVerte,mapped
1583566,рдиреЗрдкрд╛рд▓,28.4035199,83.6998122,2018-11-07 00:00:00,2025-05-29 10:03:25,0,Pablo Strubell,"'Duplicated ' The place has gone or never existed. This is an auto-generated note from MAPS.ME application: a user reports a POI that is visible on a map (which can be outdated), but cannot be found on the ground. POI has no name POI types: internet_access-wlan tourism-hotel OSM data version: 2018-09-11T19:10:03Z  #mapsme",2,0,BaboucheVerte,seems fixed
1129210,рдиреЗрдкрд╛рд▓,28.3955097,83.7127404,2017-09-06 00:00:00,2025-05-29 10:02:49,0,THOMAS Guiraud-Gaillard,'3090m' POI name: Deurali Pass POI types: tourism-viewpoint OSM data version: 2017-05-11T13:22:09Z  #mapsme,2,0,BaboucheVerte,?
3607500,рдиреЗрдкрд╛рд▓,28.3325698,83.8334637,2023-03-21 00:00:00,2025-05-29 10:00:00,0,Unknown,onosm.org submitted note from a business: Name: Nature Lover Restaurant  Category: Restaurants Accepted payment methods:  takeaway=undefined,2,0,BaboucheVerte,already mapped
3921089,рдиреЗрдкрд╛рд▓,28.4101009,83.8249207,2023-10-03 00:00:00,2025-05-29 09:56:38,0,orbhike,ticket office for hot springs,2,0,BaboucheVerte,already mapped
879186,рдиреЗрдкрд╛рд▓,26.8349112,87.2966528,2017-02-03 00:00:00,2025-05-27 18:55:04,0,dinesh limbu,Surya Marg (OSM data version: 2017-01-19T15:17:02Z) #mapsme,2,0,AKHIL@123,
3524340,рдиреЗрдкрд╛рд▓,28.8159104,83.8621750,2023-01-19 00:00:00,2025-05-23 06:47:26,0,Matyjace,"Forwarding anonymous report from #Mapy.cz user, please verify: 'Tsechen Kunga Choeling Gonpa'",2,0,BaboucheVerte,what needs to be verified ?
956127,рдиреЗрдкрд╛рд▓,28.8153054,83.8626236,2017-04-08 00:00:00,2025-05-23 06:46:53,0,Luke83,Best Step Inn (OSM data version: 2017-03-06T16:48:02Z) #mapsme,3,0,BaboucheVerte,added
948478,рдиреЗрдкрд╛рд▓,28.8057850,83.9044622,2017-04-01 00:00:00,2025-05-23 06:46:00,0,Alexandre Suey,Blue (OSM data version: 2016-09-19T14:38:03Z) #mapsme,2,0,BaboucheVerte,which means ?
894243,рдиреЗрдкрд╛рд▓,28.8166097,83.8664766,2017-02-16 00:00:00,2025-05-23 06:21:36,0,Carlos Alberto Mart├нnez Gadea,"The place has gone or never existed. This is an auto-generated note from MAPS.ME application: a user reports a POI that is visible on a map (which can be outdated), but cannot be found on the ground. User comments: 'wrong location ' (OSM data version: 2017-01-19T15:17:02Z) #mapsme",2,0,BaboucheVerte,deleted
946322,рдиреЗрдкрд╛рд▓,28.8160000,83.8650000,2017-03-30 00:00:00,2025-05-23 05:15:10,0,Arkan_Arkan,Muktinath,3,0,BaboucheVerte,let's close this useless old note
1172080,рдиреЗрдкрд╛рд▓,28.8175497,83.8725169,2017-10-13 00:00:00,2025-05-23 05:09:58,0,Santiago Trujillo Pereira,"The place has gone or never existed. This is an auto-generated note from MAPS.ME application: a user reports a POI that is visible on a map (which can be outdated), but cannot be found on the ground. POI name: Fire Gompa POI types: amenity-place_of_worship OSM data version: 2017-08-17T15:51:02Z  #mapsme",2,0,BaboucheVerte,it exists
171125,рдиреЗрдкрд╛рд▓,27.8008499,85.4804616,2014-05-21 00:00:00,2025-05-22 20:44:57,0,amritkarma,everest tea state,2,0,Mateusz Konieczny,"sadly, this is now so old that this note is likely not useful  POIs change a lot in 10 years"
2493596,рдиреЗрдкрд╛рд▓,28.0518476,82.7858582,2021-01-11 00:00:00,2025-05-19 10:04:36,0,Unknown,Napi Karyalaya Jaspur,2,0,Virat kholi@18,
1877894,рдиреЗрдкрд╛рд▓,28.2313025,84.3761473,2019-08-10 00:00:00,2025-05-17 13:03:17,0,Giovanni Migliorelli,'Inicio del sendero Annapurna ' POI name: Besisahar POI types: place-town OSM data version: 2019-06-21T10:47:15Z  #mapsme,2,0,BaboucheVerte,
3977913,рдиреЗрдкрд╛рд▓,28.4753984,84.3737850,2023-11-08 00:00:00,2025-05-17 12:58:31,0,svetluna_tracingplanet,New temporary bridge  #OsmAnd,2,0,BaboucheVerte,no more temporary bridge
3977919,рдиреЗрдкрд╛рд▓,28.4878994,84.3676935,2023-11-08 00:00:00,2025-05-17 12:57:18,0,svetluna_tracingplanet,trail ends due to landslide. no passing at all.  #OsmAnd,2,0,BaboucheVerte,it's passing now
729174,рдиреЗрдкрд╛рд▓,28.5164500,84.3588832,2016-09-28 00:00:00,2025-05-17 12:56:39,0,Manuel Hadler,himalayan ec├╢ (OSM data version: 2016-08-22T09:03:02Z) #mapsme,2,0,BaboucheVerte,no  it's a river here
2083266,рдиреЗрдкрд╛рд▓,28.5525840,84.2795697,2020-02-09 00:00:00,2025-05-17 12:53:59,0,Unknown,Mid-point of Annapurna Circuit,2,0,BaboucheVerte,irrelevant note
3977928,рдиреЗрдкрд╛рд▓,28.5641759,84.2128512,2023-11-08 00:00:00,2025-05-17 12:53:02,0,svetluna_tracingplanet,"road ends, trail goes up  #OsmAnd",2,0,BaboucheVerte,not anymore. now the oath is this road
1391608,рдиреЗрдкрд╛рд▓,28.5733655,84.1902353,2018-05-12 00:00:00,2025-05-17 12:52:10,0,Gui Mar,'Itinerary & topography between Chame and Upper Pisang is not right. All flat with graduate ascent. No big hill and no 2000m high.' POI name: Bratang POI types: place-village OSM data version: 2018-03-16T17:06:02Z  #mapsme,2,0,BaboucheVerte,path retraced
1653116,рдиреЗрдкрд╛рд▓,27.6573422,85.3314064,2019-01-17 00:00:00,2025-05-16 22:58:19,0,elemelon,Unable to answer 'Is this stretch of road lit?' for https://osm.org/way/341566936 via StreetComplete 9.0:  Is this lit?,2,0,Mateusz Konieczny,
849424,рдиреЗрдкрд╛рд▓,27.5360592,86.0466727,2017-01-12 00:00:00,2025-05-10 15:31:50,0,Milan Jung,Bhedpu -8 (OSM data version: 2016-11-23T15:14:03Z) #mapsme,2,0,Roshan7890,
849423,рдиреЗрдкрд╛рд▓,27.5360767,86.0471059,2017-01-12 00:00:00,2025-05-10 15:30:57,0,Milan Jung,school ground ... open anytime (OSM data version: 2016-11-23T15:14:03Z) #mapsme,3,1,Roshan7890,
2785642,рдиреЗрдкрд╛рд▓,27.1866542,87.1943560,2021-08-04 00:00:00,2025-04-22 18:27:48,0,Unknown,Arun Valley,2,0,Dinung Rai,
3896612,рдиреЗрдкрд╛рд▓,27.6331804,85.4920825,2023-09-19 00:00:00,2025-04-17 09:57:11,0,osmuser63783,"Road layout has changed here, no longer looks like this  via StreetComplete 54.0",2,0,Shreesha Thapa,
1307269,рдиреЗрдкрд╛рд▓,27.6345627,85.4935408,2018-02-22 00:00:00,2025-04-17 09:57:05,0,Sagar Kaji,"The place has gone or never existed. This is an auto-generated note from MAPS.ME application: a user reports a POI that is visible on a map (which can be outdated), but cannot be found on the ground. POI has no name POI types: building OSM data version: 2018-01-26T12:04:02Z  #mapsme",2,0,Shreesha Thapa,
3324347,рдиреЗрдкрд╛рд▓,27.6569000,85.3335000,2022-08-21 00:00:00,2025-04-17 09:56:52,0,Unknown,City Paradise Housing Community,2,0,Shreesha Thapa,
2756941,рдиреЗрдкрд╛рд▓,27.6581488,85.3248695,2021-07-16 00:00:00,2025-04-17 09:56:48,0,Unknown,Budha Subba Real Estate,4,1,Shreesha Thapa,
3234097,рдиреЗрдкрд╛рд▓,27.7435962,85.3292407,2022-06-21 00:00:00,2025-04-13 12:54:48,0,AmDa94,"'This street is not suitable for cars, only suitable for two Wheelers and walking.' OSM snapshot date: 2022-05-15T14:57:35Z POI has no name POI types: highway-residential  #organicmaps",2,0,Sewak1,
4247079,рдиреЗрдкрд╛рд▓,28.2119335,83.9672505,2024-05-15 00:00:00,2025-04-06 06:58:26,0,Eps Failed,'Stationery Shop' POI name: Stationery Shop POI types: shop-stationery OSM data version: 2023-06-06T06:59:44Z  #mapsme,3,0,NeisBot,"It seems that the requested information has been added, so I am proceeding to close this note.  Should you have additional details, please feel free to reopen this note.  #Closing"
1215260,рдиреЗрдкрд╛рд▓,29.0841024,80.5944715,2017-11-23 00:00:00,2025-04-04 15:36:25,0,sanjaydhami,'Patada Khola' POI has no name POI types: waterway-stream OSM data version: 2017-09-17T07:13:02Z  #mapsme,2,0,Pragya Joshi,
1215262,рдиреЗрдкрд╛рд▓,29.0794648,80.5872668,2017-11-23 00:00:00,2025-04-04 15:36:14,0,sanjaydhami,'Chhatyun Taal' POI has no name POI types: natural-water OSM data version: 2017-09-17T07:13:02Z  #mapsme,2,0,Pragya Joshi,
3213536,рдиреЗрдкрд╛рд▓,29.0324205,80.6548941,2022-06-06 00:00:00,2025-04-03 15:25:48,0,Unknown,Doti area,3,1,Pragya Joshi,
2955536,рдиреЗрдкрд╛рд▓,27.5938429,86.6785583,2021-12-01 00:00:00,2025-04-03 10:05:43,0,Unknown,cross point (bridge),2,0,TuNZa,
4007006,рдиреЗрдкрд╛рд▓,27.8319681,86.6503369,2023-11-28 00:00:00,2025-04-02 07:27:15,0,Pasang tsering sherpa,'Cho-oyu lodge &restaurant' POI name: Cho-oyu lodge &restaurant POI types: tourism-hotel OSM data version: 2023-06-06T06:59:44Z  #mapsme,2,0,TuNZa,
3176031,рдиреЗрдкрд╛рд▓,27.9048541,86.8718791,2022-05-12 00:00:00,2025-04-02 07:22:45,0,Pan Pern├н─Нek,"Forwarding anonymous report from #Mapy.cz user, please verify: There's Panorama Lodge.",2,0,TuNZa,
710095,рдиреЗрдкрд╛рд▓,27.7441651,86.7122651,2016-09-12 00:00:00,2025-04-02 06:59:32,0,Prabin Shrestha,Lakpa Nuru Sherpa & Chyamu Sherpa (OSM data version: 2016-08-08T15:45:02Z) #mapsme,2,0,TuNZa,
1969898,рдиреЗрдкрд╛рд▓,27.7523547,86.7099797,2019-10-22 00:00:00,2025-04-02 06:59:27,0,TashiMueller,'2.000 NPR (October 2019)' POI has no name POI types: amenity-payment_terminal OSM data version: 2018-09-11T19:10:03Z  #mapsme,2,0,TuNZa,
1676829,рдиреЗрдкрд╛рд▓,27.7143227,86.7143831,2019-02-10 00:00:00,2025-04-02 06:58:54,0,Vincent Asselin,'Ladt bridge to lukla' POI has no name POI types: highway-path-bridge OSM data version: 2018-12-13T07:12:02Z  #mapsme,2,0,TuNZa,
4245687,рдиреЗрдкрд╛рд▓,28.2086412,83.9598604,2024-05-14 00:00:00,2025-04-01 06:03:02,0,Til Bdr karki,'Hotel Bardan Pvt.ltd' POI name: Hotel Bardan Pvt.ltd POI types: tourism-hotel internet_access-wlan OSM data version: 2023-12-21T08:18:03Z  #mapsme,3,0,NeisBot,"It seems that the requested information has been added, so I am proceeding to close this note.  Should you have additional details, please feel free to reopen this note.  #Closing"
4245673,рдиреЗрдкрд╛рд▓,28.2091606,83.9600521,2024-05-14 00:00:00,2025-04-01 06:03:01,0,Til Bdr karki,'Hotel Bardan Pvt ltd' POI name: Hotel Bardan Pvt ltd POI types: tourism-hotel internet_access-wlan OSM data version: 2023-12-21T08:18:03Z  #mapsme,3,0,NeisBot,"It seems that the requested information has been added, so I am proceeding to close this note.  Should you have additional details, please feel free to reopen this note.  #Closing"
4245703,рдиреЗрдкрд╛рд▓,28.2086823,83.9597467,2024-05-14 00:00:00,2025-04-01 06:02:55,0,Til Bdr karki,'Hotel Bardan pvt.ltd' POI name: Hotel Bardan pvt.ltd POI types: tourism-hotel internet_access-wlan OSM data version: 2023-12-21T08:18:03Z  #mapsme,3,0,NeisBot,"It seems that the requested information has been added, so I am proceeding to close this note.  Should you have additional details, please feel free to reopen this note.  #Closing"
1616681,рдиреЗрдкрд╛рд▓,27.5117161,86.8687463,2018-12-14 00:00:00,2025-03-31 11:35:04,0,Unknown,Saadi Village,2,0,TuNZa,
1709962,рдиреЗрдкрд╛рд▓,27.2638000,86.6494000,2019-03-14 00:00:00,2025-03-31 11:34:08,0,Unknown,Cresta diga,2,0,TuNZa,
1830437,рдиреЗрдкрд╛рд▓,27.1769597,86.4740411,2019-07-01 00:00:00,2025-03-31 11:29:10,0,Ro Sun,'Suspensions Bridge' POI has no name POI types: highway-path-bridge OSM data version: 2019-05-17T13:54:02Z  #mapsme,2,0,TuNZa,
940561,рдиреЗрдкрд╛рд▓,27.7008912,85.3115668,2017-03-26 00:00:00,2025-03-29 04:52:51,0,Jadewillow,live and kust 2F (OSM data version: 2017-01-19T15:17:02Z) #mapsme,2,0,rishabp,Red location cross mark remove please
1689890,рдиреЗрдкрд╛рд▓,26.6586023,87.5591381,2019-02-23 00:00:00,2025-03-28 16:41:42,0,Tulashi Luniya,"'This is personal home' The place has gone or never existed. This is an auto-generated note from MAPS.ME application: a user reports a POI that is visible on a map (which can be outdated), but cannot be found on the ground. POI name: Bir Bahadur basnet and family's house POI types: building OSM data version: 2019-01-13T09:03:02Z  #mapsme",2,0,Taya_S,Has since been corrected it seems
791935,рдиреЗрдкрд╛рд▓,27.7024009,85.4259196,2016-11-22 00:00:00,2025-03-28 16:40:25,0,Sawrose Bastola,sawrose home (OSM data version: 2016-11-05T13:55:03Z) #mapsme,2,0,Taya_S,No personal notes please
330190,рдиреЗрдкрд╛рд▓,27.6318079,85.7255752,2015-03-12 00:00:00,2025-03-27 05:47:21,0,ngt,There is a connection somewhere.. Needs to be checked locally,2,0,achyutdhungan8,
2005607,рдиреЗрдкрд╛рд▓,28.0128248,85.4918872,2019-11-23 00:00:00,2025-03-26 11:18:17,0,Zagarot1984,"'does not exist ' The place has gone or never existed. This is an auto-generated note from MAPS.ME application: a user reports a POI that is visible on a map (which can be outdated), but cannot be found on the ground. POI name: Hotel Gossaikunda Tathepati POI types: tourism-hotel OSM data version: 2019-10-19T16:52:54Z  #mapsme",2,0,Fran├зois Bronchart,
4245460,рдиреЗрдкрд╛рд▓,27.3658751,85.8005566,2024-05-14 00:00:00,2025-03-24 20:48:51,0,Jalbhj,'Maitighar 88' POI name: Maitighar 88 POI types: tourism-apartment OSM data version: 2023-03-14T07:42:53Z  #mapsme,3,0,NeisBot,"It seems that the requested information has been added, so I am proceeding to close this note.  Should you have additional details, please feel free to reopen this note.  #Closing"
360278,рдиреЗрдкрд╛рд▓,27.6159004,85.1612090,2015-05-08 00:00:00,2025-03-24 05:03:25,0,Unknown,рдмрдЬреНрд░рдорд╛рда,3,0,Nirjaaa,
3780386,рдиреЗрдкрд╛рд▓,27.5269000,86.4646000,2023-07-14 00:00:00,2025-03-16 14:24:25,0,Unknown,Pikey Peak BC,2,0,MTBradley,
3991871,рдиреЗрдкрд╛рд▓,27.7613500,86.7147700,2023-11-18 00:00:00,2025-03-15 15:03:56,0,Unknown,khumburiverview@gmail.com  Best local organic food with Sherpa hospitality. Great view of Mt.Thamserku and Dudh Koshi river.,2,0,Tomas09,Not info for osm
1826256,рдиреЗрдкрд╛рд▓,27.8360781,86.7646539,2019-06-27 00:00:00,2025-03-15 14:55:48,0,х╝ац▒Ящ╜Р,1954хН░х║жц╡ЛщЗПчПах│░ф╜Нч╜оя╝М2018х╣┤х░╝ц│Кх░Фц░┤хЗЖцОехЕещЩДш┐Ся╝Мф╕ЙшзТщлШчиЛф╝ащАТуАВ,2,0,Tomas09,"translated to 'In 1954, India measured the position of Mount Everest, and in 2018, Nepal leveled and accessed the vicinity, transferring trigonometric height.' not something that helps the map"
1242175,рдиреЗрдкрд╛рд▓,27.9010624,86.8616653,2017-12-18 00:00:00,2025-03-15 14:54:31,0,Omnibus1,Shepard's hut is here,2,0,Tomas09,Added
4248384,рдиреЗрдкрд╛рд▓,27.6238138,85.5454614,2024-05-16 00:00:00,2025-03-15 07:08:42,0,Thmptr,"'Groundwater Resources and Irrigation Development Division, Bansghari, Dhulikhel' POI name: Groundwater Resources and Irrigation Development Division, Bansghari, Dhulikhel POI types: office-government OSM data version: 2020-08-03T21:05:25Z  #mapsme",3,0,NeisBot,"It seems that the requested information has been added, so I am proceeding to close this note.  Should you have additional details, please feel free to reopen this note.  #Closing"
806545,рдиреЗрдкрд╛рд▓,27.7216929,85.3366906,2016-12-05 00:00:00,2025-03-13 18:08:25,0,Saqib Harooni,"The place has gone or never existed. This is an auto-generated note from MAPS.ME application: a user reports a POI that is visible on a map (which can be outdated), but cannot be found on the ground. User comments: 'your map not showing exact location ' (OSM data version: 2016-08-22T09:03:02Z) #mapsme",5,1,pitscheplatsch,This happens due to your device's gps accuracy.
894966,рдиреЗрдкрд╛рд▓,28.2129541,83.9582511,2017-02-17 00:00:00,2025-03-13 17:15:48,0,sjoshi,"The place has gone or never existed. This is an auto-generated note from MAPS.ME application: a user reports a POI that is visible on a map (which can be outdated), but cannot be found on the ground. User comments: 'wrong place' (OSM data version: 2016-12-14T16:41:03Z) #mapsme",5,1,pitscheplatsch,nOthing at marker
1896788,рдиреЗрдкрд╛рд▓,27.6474200,85.3664100,2019-08-22 00:00:00,2025-03-01 04:02:27,0,Unknown,narkate chowk,4,1,Abhishek KC,
1396284,рдиреЗрдкрд╛рд▓,28.1184648,85.3407915,2018-05-17 00:00:00,2025-02-28 10:33:13,0,Alex SlynteR,'Pine forest viewpoint. Please add' POI has no name POI types: tourism-attraction OSM data version: 2018-04-25T02:00:02Z  #mapsme,3,0,dannmer,it's been fixed
1812100,рдиреЗрдкрд╛рд▓,27.6727800,85.4228000,2019-06-14 00:00:00,2025-02-24 19:00:55,0,Unknown,Thathu Bahi,2,0,5R-MFT,Already added
259635,рдиреЗрдкрд╛рд▓,27.6716418,85.4287493,2014-10-23 00:00:00,2025-02-24 17:36:51,0,Cyrille37,Golden Guest House,2,0,5R-MFT,Already added
1921944,рдиреЗрдкрд╛рд▓,27.6715912,85.4383047,2019-09-12 00:00:00,2025-02-24 17:19:49,0,Namxal khusu,"'Place changed' The place has gone or never existed. This is an auto-generated note from MAPS.ME application: a user reports a POI that is visible on a map (which can be outdated), but cannot be found on the ground. POI has no name POI types: internet_access-wlan shop-computer OSM data version: 2019-07-27T07:02:33Z  #mapsme",2,0,5R-MFT,Already removed
1109023,рдиреЗрдкрд╛рд▓,27.6725414,85.4396137,2017-08-18 00:00:00,2025-02-24 17:19:00,0,Lawaju Ukesh,"The place has gone or never existed. This is an auto-generated note from MAPS.ME application: a user reports a POI that is visible on a map (which can be outdated), but cannot be found on the ground. (OSM data version: 2016-12-14T16:41:03Z) #mapsme",2,0,5R-MFT,Already removed
710674,рдиреЗрдкрд╛рд▓,27.6749150,85.4370093,2016-09-13 00:00:00,2025-02-24 17:01:30,0,Sajendra,"The place has gone or never existed. This is an auto-generated note from MAPS.ME application: a user reports a POI that is visible on a map (which can be outdated), but cannot be found on the ground. (OSM data version: 2016-03-14T15:50:02Z) #mapsme",2,0,5R-MFT,Already removed
944885,рдиреЗрдкрд╛рд▓,27.6749191,85.4386910,2017-03-29 00:00:00,2025-02-24 17:01:07,0,Rabin Phaiju,"The place has gone or never existed. This is an auto-generated note from MAPS.ME application: a user reports a POI that is visible on a map (which can be outdated), but cannot be found on the ground. User comments: 'place doesnot exist' (OSM data version: 2017-03-06T16:48:02Z) #mapsme",2,0,5R-MFT,Already removed
2150881,рдиреЗрдкрд╛рд▓,27.6761788,85.4398102,2020-04-07 00:00:00,2025-02-24 16:55:18,0,Aawan,"'Place doesn't exist' The place has gone or never existed. This is an auto-generated note from MAPS.ME application: a user reports a POI that is visible on a map (which can be outdated), but cannot be found on the ground. POI has no name POI types: amenity-shelter internet_access-wlan OSM data version: 2020-02-09T04:19:23Z  #mapsme",2,0,5R-MFT,Already removed
2150879,рдиреЗрдкрд╛рд▓,27.6762122,85.4397046,2020-04-07 00:00:00,2025-02-24 16:54:56,0,Aawan,"'Place doesn't exist' The place has gone or never existed. This is an auto-generated note from MAPS.ME application: a user reports a POI that is visible on a map (which can be outdated), but cannot be found on the ground. POI has no name POI types: amenity-charging_station OSM data version: 2020-02-09T04:19:23Z  #mapsme",2,0,5R-MFT,Already removed
1987401,рдиреЗрдкрд╛рд▓,27.6761709,85.4383932,2019-11-07 00:00:00,2025-02-24 16:54:25,0,Khabzamilan,"'There is no more this business. The government removed it.' The place has gone or never existed. This is an auto-generated note from MAPS.ME application: a user reports a POI that is visible on a map (which can be outdated), but cannot be found on the ground. POI name: Pani Puri POI types: amenity-fast_food OSM data version: 2019-10-19T16:52:54Z  #mapsme",2,0,5R-MFT,Already removed
4631156,рдиреЗрдкрд╛рд▓,27.6948755,85.3214559,2025-02-17 00:00:00,2025-02-17 16:46:24,0,Unknown,"onosm.org submitted note from a business: Name: Himalayan Java Babarmahal addr:housenumber=- addr:street=Tanka Prasad Ghumti Sadak addr:city=Kathmandu Metropolitan City addr:postcode=44617 Phone number: 9709065953 Website: https://himalayanjava.com/locations/babarmahal/ Social Network: https://www.facebook.com/Aromikacoffee Opening Hours: Sun to Sat 7AM to 10PM Wheelchair accessibility: yes Category: Coffee Shops Description: Himalayan Java Coffee in Babarmahal is a dynamic space serving a wide variety of delectable food items alongside our freshly brewed coffee. This outlet features three spacious meeting rooms, making it a top choice for both casual meetups and professional discussions. It also proudly houses the Mavam undercounter espresso machine, a first-of-its-kind introduction in Nepal, offering an unparalleled coffee experience. With its inviting ambiance, exceptional menu offerings, and dedication to quality, Babarmahal provides the perfect balance of comfort and productivity for all visitors. Accepted payment methods: Cash,Bank card,Mastercard,Visa,American Express takeaway=yes",2,0,Nischal winner,"Visited here today and few other days as well, Good coffee shop, serves food as well."
3977933,рдиреЗрдкрд╛рд▓,28.6309417,84.1362196,2023-11-08 00:00:00,2025-02-14 11:10:00,0,svetluna_tracingplanet,there are trails going up north. please check where they are leading  #OsmAnd,2,0,dannmer,Areas with heat map activity are currently mapped at note location
2372920,рдиреЗрдкрд╛рд▓,27.3822206,85.8993072,2020-10-04 00:00:00,2025-02-11 06:42:45,0,mdarisushil,'Maili Didi' POI has no name POI types: amenity-bench OSM data version: 2019-09-09T23:32:17Z  #mapsme,2,0,YUBINNN,
4248383,рдиреЗрдкрд╛рд▓,27.4120932,85.9065355,2024-05-16 00:00:00,2025-02-11 06:42:35,0,Thmptr,'Name of the place 'Sitkha'' POI has no name POI types: tourism-attraction OSM data version: 2020-08-03T21:05:25Z  #mapsme,2,0,YUBINNN,
2691036,рдиреЗрдкрд╛рд▓,27.4064227,85.9038001,2021-05-30 00:00:00,2025-02-11 06:42:28,0,feelingo,Ram Tar,3,0,YUBINNN,
2691040,рдиреЗрдкрд╛рд▓,27.4089100,85.8904700,2021-05-30 00:00:00,2025-02-11 06:40:02,0,feelingo,Rata Mata,3,0,YUBINNN,
353809,рдиреЗрдкрд╛рд▓,28.0613172,84.7570641,2015-04-27 00:00:00,2025-02-08 21:29:14,0,redsteakraw,Road seems to extend need to check with better imagery,2,0,dannmer,mapped as a path
328819,рдиреЗрдкрд╛рд▓,27.1856743,87.2051516,2015-03-10 00:00:00,2025-01-30 00:24:34,0,SomeoneElse,Is http://www.openstreetmap.org/way/328986181/history perhaps some sort of small building?,3,1,user_22440336,Building has since been deleted
299164,рдиреЗрдкрд╛рд▓,27.1587533,87.2580528,2015-01-09 00:00:00,2025-01-30 00:21:07,0,SomeoneElse,"Is http://www.openstreetmap.org/way/315901396 really a river? As mapped it seems to flow uphill into the village, around, and then down again, which is surely wrong.",3,1,user_22440336,
295431,рдиреЗрдкрд╛рд▓,27.1474647,87.2536567,2015-01-03 00:00:00,2025-01-30 00:20:54,0,SomeoneElse,"Here http://www.openstreetmap.org/way/316657178 seems to be a duplicate of part of http://www.openstreetmap.org/way/316528733 , which is surely wrong.  Also the 'motorroad=yes' tag seems unlikely in Nepal (even if highway=primary is valid in this mountainous region, which seems unlikely).",3,1,user_22440336,
290058,рдиреЗрдкрд╛рд▓,27.1501736,87.2421044,2014-12-22 00:00:00,2025-01-30 00:20:16,0,SomeoneElse,There are some untagged and some duplicate features here (try http://www.openstreetmap.org/#map=19/27.15017/87.24251&layers=ND to see them).  What are they and what should they be tagged as?,3,1,user_22440336,
802241,рдиреЗрдкрд╛рд▓,27.6323192,85.5144772,2016-12-02 00:00:00,2025-01-26 16:28:49,0,ranjitkabir,CMA / ANM Traning centre (OSM data version: 2016-11-05T13:55:03Z) #mapsme,3,1,Jiban Khadka,
2782158,рдиреЗрдкрд╛рд▓,29.6235734,81.1092950,2021-08-02 00:00:00,2025-01-18 07:24:46,0,Er Bishnu Bohara,Gairigau,2,0,Hemant Chand,
369497,рдиреЗрдкрд╛рд▓,27.9880350,84.6445084,2015-05-25 00:00:00,2025-01-16 16:54:18,0,Unknown,25 Avril 2015 7.8,4,1,sheikchilli,outdated
214367,рдиреЗрдкрд╛рд▓,30.2507635,81.6476440,2014-08-08 00:00:00,2025-01-16 16:51:03,0,Unknown,Tukling,4,1,sheikchilli,"i assume this is a typo of tumling, which is nearby"
163054,рдиреЗрдкрд╛рд▓,28.5499405,84.2440224,2014-05-06 00:00:00,2025-01-16 16:49:57,0,MapHimalaya,Who placed this info? It needs soe verification,5,1,sheikchilli,inactive vague note
817945,рдиреЗрдкрд╛рд▓,27.6661181,85.3523896,2016-12-15 00:00:00,2025-01-13 11:07:02,0,RabindraKhadka,"The place has gone or never existed. This is an auto-generated note from MAPS.ME application: a user reports a POI that is visible on a map (which can be outdated), but cannot be found on the ground. User comments: 'My Home Imadol' (OSM data version: 2016-08-22T09:03:02Z) #mapsme",2,0,sheikchilli,no useful information
1769771,рдиреЗрдкрд╛рд▓,27.6241793,86.7180886,2019-05-07 00:00:00,2025-01-10 12:40:31,0,An─▒l Altun,'here is Kare not Kharte. Kharte is on the parallel way to the east.' POI name: Kharte POI types: place-village OSM data version: 2019-03-28T14:13:02Z  #mapsme,2,0,Aleema Washif ЁЯЗ▓ЁЯЗ╛,It is not Kharte nor Kare. It's actually Kanre.
1025265,рдиреЗрдкрд╛рд▓,27.6174544,85.5389390,2017-06-10 00:00:00,2025-01-08 15:55:11,0,Pratit Raj Giri,'Branch for KU .' POI has no name POI types: amenity-bank OSM data version: 2017-05-11T13:22:09Z  #mapsme,2,0,Suraj Thapa,
845902,рдиреЗрдкрд╛рд▓,27.6192813,85.5370476,2017-01-08 00:00:00,2025-01-08 15:37:01,0,Suman Bhattarai,"The place has gone or never existed. This is an auto-generated note from MAPS.ME application: a user reports a POI that is visible on a map (which can be outdated), but cannot be found on the ground. User comments: 'Modified ' (OSM data version: 2016-12-14T16:41:03Z) #mapsme",3,0,Suraj Thapa,
794641,рдиреЗрдкрд╛рд▓,27.6197637,85.5381138,2016-11-24 00:00:00,2025-01-08 15:36:15,0,Sanjog Sigdel,DCGE (OSM data version: 2016-11-05T13:55:03Z) #mapsme,2,0,Suraj Thapa,
794644,рдиреЗрдкрд╛рд▓,27.6193099,85.5383082,2016-11-24 00:00:00,2025-01-08 15:35:37,0,Sanjog Sigdel,KU Ring Road (OSM data version: 2016-11-05T13:55:03Z) #mapsme,2,0,Suraj Thapa,
870159,рдиреЗрдкрд╛рд▓,27.6191862,85.5381956,2017-01-28 00:00:00,2025-01-08 15:35:30,0,Suman Bhattarai,"The place has gone or never existed. This is an auto-generated note from MAPS.ME application: a user reports a POI that is visible on a map (which can be outdated), but cannot be found on the ground. User comments: 'Wrongly Mentioned ' (OSM data version: 2016-12-14T16:41:03Z) #mapsme",2,0,Suraj Thapa,
845305,рдиреЗрдкрд╛рд▓,27.6180478,85.5384423,2017-01-08 00:00:00,2025-01-08 15:34:57,0,Suman Bhattarai,"The place has gone or never existed. This is an auto-generated note from MAPS.ME application: a user reports a POI that is visible on a map (which can be outdated), but cannot be found on the ground. (OSM data version: 2016-12-14T16:41:03Z) #mapsme",2,0,Suraj Thapa,
794642,рдиреЗрдкрд╛рд▓,27.6181144,85.5386408,2016-11-24 00:00:00,2025-01-08 15:34:44,0,Sanjog Sigdel,"The place has gone or never existed. This is an auto-generated note from MAPS.ME application: a user reports a POI that is visible on a map (which can be outdated), but cannot be found on the ground. User comments: 'Silver Jubelee Statue destroyed the parking and its ahifted now somewhere else' (OSM data version: 2016-11-05T13:55:03Z) #mapsme",2,0,Suraj Thapa,
1123475,рдиреЗрдкрд╛рд▓,27.6159467,85.5361070,2017-09-01 00:00:00,2025-01-08 15:33:49,0,Pratit Raj Giri,'mohan dhara estd 2066' POI has no name POI types: man_made-water_tap OSM data version: 2017-07-28T09:42:02Z  #mapsme,2,0,Suraj Thapa,
1193900,рдиреЗрдкрд╛рд▓,27.6284377,84.4215657,2017-11-03 00:00:00,2025-01-03 14:23:07,0,Bhumi Stha,Pande Ghumti Choek (OSM data version: 2017-02-15T16:20:03Z) #mapsme,2,0,SabinBabu,
3950021,рдиреЗрдкрд╛рд▓,28.4012384,83.6971487,2023-10-20 00:00:00,2025-01-01 00:25:49,0,Begum T,"'Not here!!!! This is ticket kiosk of Poon Hill no hotel.' The place has gone or never existed. A user of Organic Maps application has reported that the POI was visible on the map (see snapshot date below), but was not found on the ground. OSM snapshot date: 2023-09-20T00:34:57Z POI name: Himalayan View Lodge & Restaurant POI types: tourism-guest_house  #organicmaps android",4,1,Freddy the Fizzer vs Woodpeck,╪║┘Д╪з┘В ╪з┘Д╪╣╪п┘К╪п ┘Е┘Ж ╪з┘Д┘Е┘Д╪з╪н╪╕╪з╪к ╪з┘Д┘В╪п┘К┘Е╪й ┘И╪║┘К╪▒ ╪з┘Д┘Е╪▒╪║┘И╪и ┘Б┘К┘З╪з ┘И╪з┘Д┘Е┘Г╪▒╪▒╪й ╪з┘Д╪к┘К ╪г╪╣┘К╪п ┘Б╪к╪н┘З╪з ┘Е┘Ж ┘В╪и┘Д ╪л┘И╪▒ ╪е┘Д┘Г╪к╪▒┘И┘Ж┘К ╪п┘И┘Ж ╪│╪и╪и. ┘З╪░┘З ╪е╪н╪п┘Й ┘З╪░┘З ╪з┘Д┘Е┘Д╪з╪н╪╕╪з╪к
2016923,рдиреЗрдкрд╛рд▓,27.0899360,85.5508127,2019-12-05 00:00:00,2024-12-24 14:14:33,0,Sahgalaxyimpex,"The place has gone or never existed. This is an auto-generated note from MAPS.ME application: a user reports a POI that is visible on a map (which can be outdated), but cannot be found on the ground. POI has no name POI types: shop-electronics OSM data version: 2019-10-19T16:52:54Z  #mapsme",3,1,okokokokk,
1979794,рдиреЗрдкрд╛рд▓,28.7211333,83.6714888,2019-10-30 00:00:00,2024-11-26 11:14:49,0,roelheij,New bridge,2,0,goundi,Resolved
2202321,рдиреЗрдкрд╛рд▓,28.2054472,83.9484047,2020-05-22 00:00:00,2024-11-26 10:47:39,0,Dipendra Gurung,"'There is no such artificial swimming pool here. ItтАЩs a natural waterfall point during autumn.' The place has gone or never existed. This is an auto-generated note from MAPS.ME application: a user reports a POI that is visible on a map (which can be outdated), but cannot be found on the ground. POI has no name POI types: leisure-swimming_pool OSM data version: 2020-04-02T17:07:40Z  #mapsme",3,0,goundi,
1574276,рдиреЗрдкрд╛рд▓,28.2118539,83.9637429,2018-10-29 00:00:00,2024-11-26 10:43:23,0,Denys Tsutsayev,"'Thia tap doea not exist anymore' The place has gone or never existed. This is an auto-generated note from MAPS.ME application: a user reports a POI that is visible on a map (which can be outdated), but cannot be found on the ground. POI name: Nareshwor Public Tap POI types: building amenity-drinking_water OSM data version: 2018-09-11T19:10:03Z  #mapsme",2,0,goundi,Yeah its gone
726038,рдиреЗрдкрд╛рд▓,27.6774916,84.3772658,2016-09-25 00:00:00,2024-11-17 06:15:40,0,utsav aryal,"The place has gone or never existed. This is an auto-generated note from MAPS.ME application: a user reports a POI that is visible on a map (which can be outdated), but cannot be found on the ground. User comments: 'it is the bus stop' (OSM data version: 2016-08-22T09:03:02Z) #mapsme",2,0,NoobyAizen,Shivaghat Bus Station
718574,рдиреЗрдкрд╛рд▓,27.6773574,84.3806306,2016-09-19 00:00:00,2024-11-17 06:15:08,0,utsav aryal,"The place has gone or never existed. This is an auto-generated note from MAPS.ME application: a user reports a POI that is visible on a map (which can be outdated), but cannot be found on the ground. User comments: 'it doesnot exist now' (OSM data version: 2016-08-22T09:03:02Z) #mapsme",2,0,NoobyAizen,
2998868,рдиреЗрдкрд╛рд▓,30.1517142,81.3343892,2022-01-06 00:00:00,2024-11-07 08:05:00,0,ivanbranco,invalid place value,5,1,хС╝хЩЬхЩЬхС╝хЩЬ,
1781634,рдиреЗрдкрд╛рд▓,27.8552447,86.7376446,2019-05-17 00:00:00,2024-10-03 07:21:23,0,Florian Venard,"'Aucune cave ' The place has gone or never existed. This is an auto-generated note from MAPS.ME application: a user reports a POI that is visible on a map (which can be outdated), but cannot be found on the ground. POI has no name POI types: natural-cave_entrance OSM data version: 2019-03-28T14:13:02Z  #mapsme",2,0,хС╝хЩЬхЩЬхС╝хЩЬ,
844242,рдиреЗрдкрд╛рд▓,27.6853365,85.2964923,2017-01-06 00:00:00,2024-09-23 12:18:09,0,Samraat Tamang,"The place has gone or never existed. This is an auto-generated note from MAPS.ME application: a user reports a POI that is visible on a map (which can be outdated), but cannot be found on the ground. (OSM data version: 2016-12-14T16:41:03Z) #mapsme",2,0,nags grg,
1295641,рдиреЗрдкрд╛рд▓,27.8690431,83.5457166,2018-02-11 00:00:00,2024-09-22 23:50:34,0,timleejy,"The place has gone or never existed. This is an auto-generated note from MAPS.ME application: a user reports a POI that is visible on a map (which can be outdated), but cannot be found on the ground. POI has no name POI types: amenity-restaurant OSM data version: 2018-01-26T12:04:02Z  #mapsme",2,0,Kipriou,
3906851,рдиреЗрдкрд╛рд▓,27.8860926,83.6171579,2023-09-24 00:00:00,2024-09-20 13:31:01,0,Unknown,Walking Bridge to cross the river,2,0,Kipriou,
867242,рдиреЗрдкрд╛рд▓,27.8649884,83.5498096,2017-01-26 00:00:00,2024-09-20 13:28:56,0,Pawan Gyawali,Tundikhel (OSM data version: 2016-09-19T14:38:03Z) #mapsme,2,0,Kipriou,
1669342,рдиреЗрдкрд╛рд▓,27.8695094,83.5476531,2019-02-02 00:00:00,2024-09-20 13:14:05,0,Unknown,"The address of Horizon Homestay is the link below: https://goo.gl/maps/DiU57nL8NK42 Which is situated on Bhagwati Tole Rd, Tansen32500,Nepal  Please help us to correct the same",10,1,Kipriou,it is forbidden to copy from google maps or use them as a mapping aid
884523,рдиреЗрдкрд╛рд▓,27.8691593,83.5457729,2017-02-07 00:00:00,2024-09-20 13:11:04,0,zwintabris,GETUP Tansen and City View Guest House (OSM data version: 2017-01-19T15:17:02Z) #mapsme,2,0,Kipriou,
2330937,рдиреЗрдкрд╛рд▓,26.6570622,87.5890750,2020-09-01 00:00:00,2024-09-19 17:44:17,0,Ramcg,'This is famous park and located in Road named selfie road.' POI has no name POI types: tourism-attraction OSM data version: 2020-08-03T21:05:25Z  #mapsme,4,1,Nisans,Selfie Road
4437308,рдиреЗрдкрд╛рд▓,27.9948100,86.7739200,2024-09-15 00:00:00,2024-09-17 13:03:53,0,kuhni74,ele=5750 (https://westra.ru/passes/Passes/17138),2,0,kuhni74,
4437304,рдиреЗрдкрд╛рд▓,27.9832170,86.7619620,2024-09-15 00:00:00,2024-09-17 13:03:20,0,kuhni74,ele=5760 (https://westra.ru/passes/Passes/17137),2,0,kuhni74,
4437284,рдиреЗрдкрд╛рд▓,27.9861500,86.7670010,2024-09-15 00:00:00,2024-09-17 13:00:20,0,kuhni74,5697m (Finn Map),2,0,kuhni74,
4433554,рдиреЗрдкрд╛рд▓,27.9779700,86.7532720,2024-09-13 00:00:00,2024-09-14 19:29:09,0,kuhni74,5656m (Finn Map),2,0,kuhni74,
4433556,рдиреЗрдкрд╛рд▓,27.9690100,86.7514400,2024-09-13 00:00:00,2024-09-14 19:28:15,0,kuhni74,5837m (Finn Map),2,0,kuhni74,
4433560,рдиреЗрдкрд╛рд▓,27.9586900,86.7525300,2024-09-13 00:00:00,2024-09-14 19:19:49,0,kuhni74,5638m (Finn Map),2,0,kuhni74,
4433559,рдиреЗрдкрд╛рд▓,27.9512900,86.7538000,2024-09-13 00:00:00,2024-09-14 19:17:01,0,kuhni74,5697m (Finn Map),2,0,kuhni74,
3186320,рдиреЗрдкрд╛рд▓,29.5578355,80.3934749,2022-05-19 00:00:00,2024-09-02 10:01:58,0,Unknown,onosm.org submitted note from a business: name: Tripura sundari baitadi phone: 9456543482 website:  twitter:  facebook:  email:  hours: Always category: Hindu Temples address: Tripura Sundari Temple,3,0,Rabindra Lekhak,
798713,рдиреЗрдкрд╛рд▓,27.7578588,86.0333662,2016-11-28 00:00:00,2024-08-26 21:58:14,0,Juan Ignacio Correa Fuentes,altitude 3790msnm (OSM data version: 2016-08-22T09:03:02Z) #mapsme,2,0,kuhni74,too high according to https://pahar.in/pahar/Maps--Primary/Nepal%20Maps/Nepal%20Topo%20Maps/2786%2001%20Lamabagar.jpg
1297795,рдиреЗрдкрд╛рд▓,27.7574213,86.0343672,2018-02-13 00:00:00,2024-08-26 21:58:03,0,AkAshok,'Religion place height =3810 m' POI has no name POI types: tourism-viewpoint OSM data version: 2017-11-17T20:18:02Z  #mapsme,3,0,kuhni74,
1831949,рдиреЗрдкрд╛рд▓,27.7563000,86.0343000,2019-07-02 00:00:00,2024-08-26 21:23:09,0,Unknown,Kalinchok,2,0,kuhni74,
731548,рдиреЗрдкрд╛рд▓,28.0493359,86.1675617,2016-09-30 00:00:00,2024-08-26 15:50:50,0,Jyoti Dahal,Lapchi (OSM data version: 2016-07-15T17:38:02Z) #mapsme,2,0,kuhni74,tagged in alt_name
3760803,рдиреЗрдкрд╛рд▓,27.7390671,85.2909398,2023-07-02 00:00:00,2024-08-20 09:45:01,0,Mand1p,'There is building in the coordinate but it is not shown in OSM.' OSM snapshot date: 2023-06-02T17:16:21Z POI has no name POI types: amenity-school  #organicmaps,2,0,Mand1p,
3516263,рдиреЗрдкрд╛рд▓,27.6862547,85.5431986,2023-01-13 00:00:00,2024-08-09 06:20:25,0,Matyjace,"Forwarding anonymous report from #Mapy.cz user, please verify: 'lookout tower'",3,1,anitabajgain,
987412,рдиреЗрдкрд╛рд▓,27.7130854,85.3245878,2017-05-06 00:00:00,2024-07-30 09:36:40,0,sudarshan subedi,Bindabasaweni MART,2,0,OSMNAXA,
2049413,рдиреЗрдкрд╛рд▓,27.7069936,85.3071903,2020-01-07 00:00:00,2024-07-24 08:56:24,0,Jems drifter,'A category should be attraction.' POI has no name POI types: tourism-viewpoint OSM data version: 2019-11-24T01:08:45Z  #mapsme,2,0,Heritagegamer,
2306331,рдиреЗрдкрд╛рд▓,27.7079493,85.3101094,2020-08-13 00:00:00,2024-07-24 08:56:05,0,Aashishdon,'chilly station' POI name: Chandraman Maskey Marg POI types: highway-tertiary OSM data version: 2020-07-14T11:22:37Z  #mapsme,2,0,Heritagegamer,
936141,рдиреЗрдкрд╛рд▓,27.7067015,85.3102883,2017-03-22 00:00:00,2024-07-24 08:55:26,0,pramesh rajkarnikar,The name is not correct. It should be 'Janabaha dyo'. Please correct this. (OSM data version: 2017-03-06T16:48:02Z) #mapsme,2,0,Heritagegamer,
1721103,рдиреЗрдкрд╛рд▓,27.7435938,85.4139805,2019-03-24 00:00:00,2024-07-16 06:17:19,0,Unknown,nothing here but an empty site,3,0,Sanjib Thapa AFCC,
3153332,рдиреЗрдкрд╛рд▓,27.6892913,85.3682522,2022-04-26 00:00:00,2024-07-09 15:58:51,0,subodhu,Splash swimming pool  via StreetComplete 42.0  Attached photo(s): https://westnordost.de/p/90796.jpg,2,0,Asmita Poudyal,
1689007,рдиреЗрдкрд╛рд▓,27.8991166,81.8454240,2019-02-22 00:00:00,2024-07-04 15:59:14,0,Bipin_K_Thapa,"'Yy' The place has gone or never existed. This is an auto-generated note from MAPS.ME application: a user reports a POI that is visible on a map (which can be outdated), but cannot be found on the ground. POI has no name POI types: amenity-bank OSM data version: 2018-12-13T07:12:02Z  #mapsme",2,0,sheikchilli,no POI here
3083555,рдиреЗрдкрд╛рд▓,28.2555011,83.9769416,2022-03-11 00:00:00,2024-06-26 16:31:27,0,unen,"'for handwashng, not drinkable' OSM snapshot date: 2022-02-04T10:02:57Z POI has no name POI types: man_made-water_tap  #organicmaps",4,1,Dibikshya Shrestha,
2574423,рдиреЗрдкрд╛рд▓,27.7501158,85.4062074,2021-03-11 00:00:00,2024-06-22 05:50:31,0,Five Brothers Store,Grocery Shop,2,0,Kiran shrestha,Store description added
2372921,рдиреЗрдкрд╛рд▓,27.7419326,85.4031643,2020-10-04 00:00:00,2024-06-22 05:49:23,0,mdarisushil,'Bhumisthali Chowk' POI has no name POI types: amenity-bench OSM data version: 2019-10-19T16:52:54Z  #mapsme,2,0,Kiran shrestha,
4250718,рдиреЗрдкрд╛рд▓,27.9880611,86.9252068,2024-05-17 00:00:00,2024-06-08 09:39:34,0,Unknown,inoxtag,2,0,Kazing,irrelevant note
692725,рдиреЗрдкрд╛рд▓,27.5920567,85.4624044,2016-08-29 00:00:00,2024-06-01 14:02:57,0,Milan Kumar Bajagain,"The place has gone or never existed. This is an auto-generated note from MAPS.ME application: a user reports a POI that is visible on a map (which can be outdated), but cannot be found on the ground. User comments: 'not existed' (OSM data version: 2016-08-08T15:45:02Z) #mapsme",2,0,sheikchilli,fixed
692726,рдиреЗрдкрд╛рд▓,27.5920733,85.4627276,2016-08-29 00:00:00,2024-06-01 14:02:51,0,Milan Kumar Bajagain,"The place has gone or never existed. This is an auto-generated note from MAPS.ME application: a user reports a POI that is visible on a map (which can be outdated), but cannot be found on the ground. User comments: 'not existed.' (OSM data version: 2016-08-08T15:45:02Z) #mapsme",2,0,sheikchilli,fixed
692724,рдиреЗрдкрд╛рд▓,27.5920864,85.4626270,2016-08-29 00:00:00,2024-06-01 14:02:47,0,Milan Kumar Bajagain,"The place has gone or never existed. This is an auto-generated note from MAPS.ME application: a user reports a POI that is visible on a map (which can be outdated), but cannot be found on the ground. User comments: 'It is not existed now.' (OSM data version: 2016-08-08T15:45:02Z) #mapsme",2,0,sheikchilli,fixed
3074813,рдиреЗрдкрд╛рд▓,27.6714948,85.2788025,2022-03-05 00:00:00,2024-06-01 01:57:42,0,shashish,Kirtipur Cineplex,2,0,sheikchilli,already mapped
833758,рдиреЗрдкрд╛рд▓,27.6621794,85.2787562,2016-12-29 00:00:00,2024-06-01 01:56:48,0,Pritam Budhathoki,"The place has gone or never existed. This is an auto-generated note from MAPS.ME application: a user reports a POI that is visible on a map (which can be outdated), but cannot be found on the ground. (OSM data version: 2016-06-01T10:03:02Z) #mapsme",2,0,sheikchilli,no POI here
1614310,рдиреЗрдкрд╛рд▓,27.6521940,85.2816871,2018-12-11 00:00:00,2024-06-01 01:56:33,0,Distar Service Center,Diwakar Nepal's House (OSM data version: 2017-01-19T15:17:02Z) #mapsme,2,0,sheikchilli,not useful for openstreetmap
4015382,рдиреЗрдкрд╛рд▓,27.6552789,85.2993429,2023-12-05 00:00:00,2024-06-01 01:55:41,0,Unknown,Vinayak colony,2,0,sheikchilli,already named
806941,рдиреЗрдкрд╛рд▓,27.6538097,85.3050901,2016-12-06 00:00:00,2024-06-01 01:55:21,0,Hrishav Karki,"The place has gone or never existed. This is an auto-generated note from MAPS.ME application: a user reports a POI that is visible on a map (which can be outdated), but cannot be found on the ground. (OSM data version: 2016-11-23T15:14:03Z) #mapsme",2,0,sheikchilli,removed
3522836,рдиреЗрдкрд╛рд▓,27.8995800,85.1463400,2023-01-18 00:00:00,2024-06-01 01:49:46,0,Unknown,"Everest Bank, Battar Branch",2,0,sheikchilli,already mapped
976647,рдиреЗрдкрд╛рд▓,27.8986261,85.1475730,2017-04-26 00:00:00,2024-06-01 01:49:11,0,Biraj,RK Restaurant,2,0,sheikchilli,duplicate
1353725,рдиреЗрдкрд╛рд▓,27.8958678,85.1551828,2018-04-09 00:00:00,2024-06-01 01:48:56,0,Nabin Kumar Kc,"The place has gone or never existed. This is an auto-generated note from MAPS.ME application: a user reports a POI that is visible on a map (which can be outdated), but cannot be found on the ground. POI has no name POI types: natural-wood OSM data version: 2018-03-16T17:06:02Z  #mapsme",2,0,sheikchilli,"nope, still there"
634330,рдиреЗрдкрд╛рд▓,27.8657173,83.5502737,2016-07-19 00:00:00,2024-05-31 21:00:15,0,Sakar Bhattarai,"The place has gone or never existed. This is an auto-generated note from MAPS.ME application: a user reports a POI that is visible on a map (which can be outdated), but cannot be found on the ground. User comments: 'I marked wrong palce' (OSM data version: 2016-06-20T05:57:02Z) #mapsme",2,0,sheikchilli,no POI here
607716,рдиреЗрдкрд╛рд▓,27.6852609,85.2530687,2016-06-28 00:00:00,2024-05-29 13:14:30,0,samir maharjan,"The place has gone or never existed.  This is an auto-generated note from MAPS.ME application: a user reports a POI that is visible on a map (which can be outdated), but cannot be found on the ground. (OSM data version: 2016-06-01T10:03:02Z) #mapsme",2,0,sheikchilli,removed
584429,рдиреЗрдкрд╛рд▓,28.0886245,82.8842810,2016-06-05 00:00:00,2024-05-29 12:14:01,0,Shivraj Khanal,"The place has gone or never existed. This is an auto-generated note from MAPS.ME application: a user reports a POI that is visible on a map (which can be outdated), but cannot be found on the ground. (OSM data version: 2016-05-10T14:41:03Z) #mapsme",2,0,sheikchilli,unclear
851176,рдиреЗрдкрд╛рд▓,28.0886110,82.8842704,2017-01-14 00:00:00,2024-05-29 12:13:56,0,Basanta Khadka,jhimrick hydropower (OSM data version: 2016-12-14T16:41:03Z) #mapsme,2,0,sheikchilli,unclear/misplaced (note is on the center node of a town/admin boundary)
2037245,рдиреЗрдкрд╛рд▓,27.6596655,85.3371904,2019-12-26 00:00:00,2024-05-28 22:47:27,0,saltapocinhas,Plot,2,0,sheikchilli,not useful for openstreetmap
2236688,рдиреЗрдкрд╛рд▓,29.6427000,82.3532000,2020-06-21 00:00:00,2024-05-28 22:46:43,0,Unknown,mugs,2,0,sheikchilli,unclear
2374297,рдиреЗрдкрд╛рд▓,27.7070682,85.3134406,2020-10-05 00:00:00,2024-05-28 22:46:13,0,Unknown,Cyclyf,2,0,sheikchilli,unclear
2668721,рдиреЗрдкрд╛рд▓,29.8867926,80.6396484,2021-05-14 00:00:00,2024-05-28 22:44:52,0,Unknown,APICAL,2,0,sheikchilli,unclear
3024703,рдиреЗрдкрд╛рд▓,27.7159100,85.3436400,2022-01-26 00:00:00,2024-05-28 22:42:36,0,Unknown,Not a castle,2,0,sheikchilli,removed. thanks
3581838,рдиреЗрдкрд╛рд▓,27.8304918,85.1231754,2023-03-02 00:00:00,2024-05-28 22:38:54,0,Binit27,Air Crash 2020-11-29,2,0,sheikchilli,not useful for openstreetmap
3581840,рдиреЗрдкрд╛рд▓,27.7099512,86.7137602,2023-03-02 00:00:00,2024-05-28 22:38:48,0,Binit27,Air Crash 2019-04-14,2,0,sheikchilli,not useful for openstreetmap
3581843,рдиреЗрдкрд╛рд▓,27.9045526,83.2828045,2023-03-02 00:00:00,2024-05-28 22:38:42,0,Binit27,Air Crash 2014-02-16,2,0,sheikchilli,not useful for openstreetmap
3581845,рдиреЗрдкрд╛рд▓,29.9732318,81.8157005,2023-03-02 00:00:00,2024-05-28 22:38:37,0,Binit27,Air Crash 2013-06-19,2,0,sheikchilli,not useful for openstreetmap
3581847,рдиреЗрдкрд╛рд▓,29.0537756,83.8302326,2023-03-02 00:00:00,2024-05-28 22:38:32,0,Binit27,Air Crash 2013-05-15,2,0,sheikchilli,not useful for openstreetmap
3637508,рдиреЗрдкрд╛рд▓,26.8896700,85.5003500,2023-04-11 00:00:00,2024-05-28 22:37:42,0,Unknown,RajeshDas1440 house,2,0,sheikchilli,not useful for openstreetmap
3693929,рдиреЗрдкрд╛рд▓,27.6792437,85.3212336,2023-05-18 00:00:00,2024-05-28 22:36:09,0,Unknown,Ihihihi ma Haribahadur,2,0,sheikchilli,no information
3693926,рдиреЗрдкрд╛рд▓,27.6795461,85.3213477,2023-05-18 00:00:00,2024-05-28 22:36:01,0,Unknown,Uju muju,2,0,sheikchilli,no information
3160143,рдиреЗрдкрд╛рд▓,28.4124000,82.4725000,2022-05-01 00:00:00,2024-05-28 18:07:05,0,Unknown,"Contact Details: Business Name: Aruba Taxi Service Serving Savaneta, Savaneta 21P Aruba +297-630-8550 https://www.arubataxiservice.com arubataxiservice@gmail.com https://www.facebook.com/Aruba-Taxi-Service-104095222294770 Operating Hours: 24/7  Keywords:  aruba taxi rates, aruba taxi phone number, aruba taxi app, aruba taxi rates from airport, aruba airport taxi, aruba taxi whatsapp, tripadvisor aruba taxi aruba, taxi from airport to hotel  Description:  We are taxi service in Aruba and offer the best services for our customers. We have vehicles for all purposes; we have taxis that can transport you within the town. And we have vans that can take you out of town as a group and other types of vehicles such as limousines for events. We have highly trained drivers that will serve you with high levels of dignity and integrity. There are non-shared rides and shared rides, and you do not have to deal with public transport. You are picked up from your location and dropped off at your preferred destination. Why should you contact us? We have the cheapest options for you here in Aruba with high-quality services. We have competitive prices and clean vehicles. Our vehicles are kept in good condition throughout. You can never find any parasites in our vehicles, and we ensure that the seats are cleaned thoroughly to remove any dirt that can accumulate to be a breeding site for parasites. We service our vehicles regularly, and therefore you are assured that our taxis cannot have mechanical issues en route. For our services, you need to order and provide certain information so that we can arrange your ride. Your ride can have a driver or you can hire a vehicle for your use. Our drivers are highly trained in handling customers, and we don't rush anyone. We pick you on time and ensure that efficiency and effectiveness are our core principles. We respect your privacy, and thus any information with us on your rides cannot be shared with anyone else apart from when you authorize it. Ar",2,0,sheikchilli,misplaced
4239078,рдиреЗрдкрд╛рд▓,27.6876619,85.3146206,2024-05-10 00:00:00,2024-05-27 12:41:43,0,Binesh Kapali,'Nepalconsult (P) ltd.' POI name: Nepalconsult (P) ltd. POI types: office-company OSM data version: 2023-12-21T08:18:03Z  #mapsme,3,0,sheikchilli,
1326285,рдиреЗрдкрд╛рд▓,28.7070100,80.5845900,2018-03-13 00:00:00,2024-05-27 06:11:20,0,Biplove Pokhrel,Dhangadi Ward 1,4,1,rojina kafle,
3550591,рдиреЗрдкрд╛рд▓,27.6189988,85.5415463,2023-02-08 00:00:00,2024-05-25 11:56:46,0,Unknown,Land Management Training Center,4,1,Yansu Sah,
1589193,рдиреЗрдкрд╛рд▓,29.0180178,82.7563744,2018-11-13 00:00:00,2024-05-19 06:48:27,0,рдордгрд┐,"'Samjhana hotel (On way to Phoksundo ), tea and snacks available. Highway to reach Dunai- headquarter of Dolpa district, bheri corridor' POI has no name POI types: highway-rest_area OSM data version: 2018-03-16T17:06:02Z  #mapsme",2,0,Corporate Treks,
4248300,рдиреЗрдкрд╛рд▓,26.5851490,86.9621086,2024-05-16 00:00:00,2024-05-16 13:57:50,0,Unknown,Koshi tapu wildlife,2,0,pitscheplatsch,mapped
4248385,рдиреЗрдкрд╛рд▓,27.6238138,85.5454614,2024-05-16 00:00:00,2024-05-16 07:34:42,0,Thmptr,"'Groundwater Resources and Irrigation Development Division, Bansghari, Dhulikhel' POI name: Groundwater Resources and Irrigation Development Division, Bansghari, Dhulikhel POI types: office-government OSM data version: 2020-08-03T21:05:25Z  #mapsme",2,0,NeisBot,"This note has the identical location and text  as note https://osm.org/note/4248384  Therefore, it will be closed.  #DuplicateNote"
4243801,рдиреЗрдкрд╛рд▓,27.8747916,83.6054286,2024-05-13 00:00:00,2024-05-15 18:23:52,0,Unknown,Pyuthan  Jabube,2,0,sheikchilli,no information
4245302,рдиреЗрдкрд╛рд▓,28.1790900,83.9793300,2024-05-14 00:00:00,2024-05-15 18:23:43,0,Unknown,my name is ayush shrestha   |,2,0,sheikchilli,no information
1954053,рдиреЗрдкрд╛рд▓,27.0034194,85.4841987,2019-10-09 00:00:00,2024-05-15 16:25:26,0,AkAshok,'9804283546' POI name: santa magar POI types: building OSM data version: 2019-08-30T18:41:13Z  #mapsme,2,0,sheikchilli,unclear
1603414,рдиреЗрдкрд╛рд▓,27.7775897,84.2430280,2018-11-29 00:00:00,2024-05-15 16:24:31,0,AkAshok,'personal home' POI has no name POI types: historic-castle OSM data version: 2018-07-05T18:22:02Z  #mapsme,3,0,sheikchilli,i'll delete these castles
1603415,рдиреЗрдкрд╛рд▓,27.7775660,84.2429158,2018-11-29 00:00:00,2024-05-15 16:24:10,0,AkAshok,'personal house' POI has no name POI types: historic-castle OSM data version: 2018-07-05T18:22:02Z  #mapsme,3,0,sheikchilli,POI removed
1603410,рдиреЗрдкрд╛рд▓,27.7743575,84.2706831,2018-11-29 00:00:00,2024-05-15 16:23:29,0,AkAshok,'house & shop' POI has no name POI types: historic-castle OSM data version: 2018-07-05T18:22:02Z  #mapsme,2,0,sheikchilli,recategorizing as shop
1603411,рдиреЗрдкрд╛рд▓,27.7732824,84.2698712,2018-11-29 00:00:00,2024-05-15 16:22:58,0,AkAshok,'рдХрд╛рдЧреНрд░реЗрд╕ рд╡рдбрд╛ рдЕрдзреНрдпрдХреНрд╖' POI has no name POI types: historic-castle OSM data version: 2018-07-05T18:22:02Z  #mapsme,2,0,sheikchilli,very unlikely to be a castle
1603412,рдиреЗрдкрд╛рд▓,27.7711074,84.2630459,2018-11-29 00:00:00,2024-05-15 16:22:17,0,AkAshok,'personal house' POI has no name POI types: historic-castle OSM data version: 2018-07-05T18:22:02Z  #mapsme,2,0,sheikchilli,personal houses shouldnt be on OSM
1583625,рдиреЗрдкрд╛рд▓,27.6682561,85.4424085,2018-11-07 00:00:00,2024-05-15 11:48:05,0,prazhaant,"'...' The place has gone or never existed. This is an auto-generated note from MAPS.ME application: a user reports a POI that is visible on a map (which can be outdated), but cannot be found on the ground. POI has no name POI types: tourism-attraction OSM data version: 2018-09-11T19:10:03Z  #mapsme",2,0,sheikchilli,POI already removed
4246378,рдиреЗрдкрд╛рд▓,28.2119335,83.9672505,2024-05-14 00:00:00,2024-05-14 19:46:46,0,Eps Failed,'Stationery Shop' POI name: Stationery Shop POI types: shop-stationery OSM data version: 2023-06-06T06:59:44Z  #mapsme,5,1,Eps Failed,"It seems that the requested information has been added, so I am proceeding to close this note.  Should you have additional details, please feel free to reopen this note.  #Closing"
1566976,рдиреЗрдкрд╛рд▓,28.7227770,83.6774578,2018-10-21 00:00:00,2024-05-14 18:29:49,0,Unfiltered Explorations,'placeholder' POI has no name POI types: amenity-bench OSM data version: 2018-08-04T14:22:01Z  #mapsme,2,0,sheikchilli,no information
4246218,рдиреЗрдкрд╛рд▓,27.6159200,85.5342615,2024-05-14 00:00:00,2024-05-14 17:21:27,0,jj123778hh,startpoint101,2,0,jj123778hh,
4246214,рдиреЗрдкрд╛рд▓,27.6193320,85.5391645,2024-05-14 00:00:00,2024-05-14 17:16:45,0,jj123778hh,Ending point ku,4,1,jj123778hh,
4246209,рдиреЗрдкрд╛рд▓,27.6250642,85.5410260,2024-05-14 00:00:00,2024-05-14 17:12:41,0,jj123778hh,start point1,2,0,jj123778hh,
1260547,рдиреЗрдкрд╛рд▓,27.7702649,85.1796333,2018-01-07 00:00:00,2024-05-14 16:17:05,0,Sat123,'Ichchhakamana brick factory' POI has no name POI types: man_made-chimney OSM data version: 2017-12-08T15:42:02Z  #mapsme,2,0,sheikchilli,duplicate
1260550,рдиреЗрдкрд╛рд▓,27.7702458,85.1795300,2018-01-07 00:00:00,2024-05-14 16:17:02,0,Sat123,'Ichchha Kamana bricks' POI has no name POI types: man_made-chimney OSM data version: 2017-12-08T15:42:02Z  #mapsme,2,0,sheikchilli,duplicate
1260548,рдиреЗрдкрд╛рд▓,27.7699538,85.1794987,2018-01-07 00:00:00,2024-05-14 16:17:00,0,Sat123,'Ichchha Kamana brick factory' POI has no name POI types: man_made-chimney OSM data version: 2017-12-08T15:42:02Z  #mapsme,2,0,sheikchilli,duplicate
