note_id,country_name,latitude,longitude,opened_at,closed_at,days_to_resolution,opened_by_username,opening_comment,total_comments,was_reopened,closed_by_username,closing_comment
CREATE FUNCTION
4790100,Polska wyłączna strefa ekonomiczna,55.1275633,18.7690380,2025-06-04 00:00:00,2025-06-05 09:36:38,0,Unknown,U52hwthq5jat,2,0,YomanNH,Spam.
4785680,Polska wyłączna strefa ekonomiczna,55.1821022,18.1492424,2025-06-01 00:00:00,2025-06-02 13:19:55,0,Unknown,QQQQQQQQQQqqqqqqqqqq,2,0,mavl,This note does not contain a useful information for OpenStreetMap.
4719016,Polska wyłączna strefa ekonomiczna,54.9126352,18.9478673,2025-04-20 00:00:00,2025-05-28 11:17:28,0,Unknown,W którejś wersji mapy Gdyni wiedziałem nazwę 'Orowo' zamiast prawidłowej 'Orłowo'. Ale teraz nie mogę tego znaleźć.,2,0,Ryzy85,czemu to stoi po środku niczego?  zamykam.
4682520,Polska wyłączna strefa ekonomiczna,55.4119087,16.7597527,2025-03-25 00:00:00,2025-03-25 22:47:07,0,Unknown,bagno,3,0,Hidoo00,Closing as this is nonsense
2274699,Polska wyłączna strefa ekonomiczna,55.7494341,18.0522537,2020-07-22 00:00:00,2024-08-24 05:40:16,0,Unknown,Østersøen could be added ...  https://da.wikipedia.org/wiki/%C3%98sters%C3%B8en,4,0,bagis,"Danish translation has been included in name and name:da since atleast two years, closing."
2806933,Polska wyłączna strefa ekonomiczna,54.5112000,16.0478000,2021-08-17 00:00:00,2021-09-01 14:20:36,0,ryba666,Błędna granica morza terytorialnego RP.  Poprawną granicę można pobrać z rejestru 'Państwowy rejestr granic i powierzchni jednostek podziałów terytorialnych kraju' (PRG) dostępne pod adresem: http://www.gugik.gov.pl/pzgik/dane-bez-oplat/dane-z-panstwowego-rejestru-granic-i-powierzchni-jednostek-podzialow-terytorialnych-kraju-prg,10,0,pio2_122,"Poprawiłem granicę z danych PRG od Świnoujścia aż do styku z granicą Rosji (bo na całym odcinku występowały, choć dużo mniejsze, różnice względem PRG a OSM).  Zmiany powinny być już widoczne po odświeżeniu przeglądarki (shift + F5)."
2674373,Polska wyłączna strefa ekonomiczna,55.3557911,17.9906885,2021-05-18 00:00:00,2021-05-20 07:29:36,0,emiham,Står både 55 och 2 på samma hus.  via StreetComplete 31.3  Attached photo(s): https://westnordost.de/p/41913.jpg https://westnordost.de/p/41914.jpg,3,0,emiham,"Good catch! Seems like a bug in StreetComplete. I resolved the issue in the actual location, so I'm closing this."
